$GNGGA,211803.500,4910.42691357,N,12304.40116480,W,5,10,0.82,9.539,M,-19.737,M,1.5,0569*6C
$GNRMC,211803.500,A,4910.42691357,N,12304.40116480,W,0.081,066.26,281024,,,F,V*2C
$GNGLL,4910.42691357,N,12304.40116480,W,211803.500,A,D*53
$GNVTG,066.26,T,,M,0.081,N,0.150,K,D*2F
$PQTMTXT,1,01,01,01,0x0008ec0705f13dc1*4A
$GNGGA,211804.000,4910.42691176,N,12304.40115654,W,5,10,0.82,9.563,M,-19.737,M,2.0,0569*6E
$GNRMC,211804.000,A,4910.42691176,N,12304.40115654,W,0.196,066.26,281024,,,F,V*20
$GNGLL,4910.42691176,N,12304.40115654,W,211804.000,A,D*58
$GNVTG,066.26,T,,M,0.196,N,0.363,K,D*2A
$GNGSA,A,3,03,04,07,09,16,26,,,,,,,1.53,0.82,1.30,1*04
$GNGSA,A,3,,,,,,,,,,,,,1.53,0.82,1.30,2*0D
$GNGSA,A,3,,,,,,,,,,,,,1.53,0.82,1.30,3*0C
$GNGSA,A,3,21,22,36,45,,,,,,,,,1.53,0.82,1.30,4*0C
$GNGSA,A,3,,,,,,,,,,,,,1.53,0.82,1.30,5*0A
$GNGSA,A,3,,,,,,,,,,,,,1.53,0.82,1.30,6*09
$GPGSV,4,1,13,03,19,174,40,04,67,105,48,06,,,37,07,45,248,48,1*55
$GPGSV,4,2,13,09,76,302,50,11,,,39,16,46,075,45,20,,,39,1*68
$GPGSV,4,3,13,26,22,047,42,30,,,40,44,,,45,46,,,46,1*56
$GPGSV,4,4,13,48,,,45,1*6B
$GPGSV,2,1,08,03,19,174,31,04,67,105,49,06,,,35,07,45,248,40,6*53
$GPGSV,2,2,08,09,76,302,45,11,,,38,26,22,047,35,30,,,36,6*6F
$GPGSV,1,1,00,8*6D
$GLGSV,1,1,00,1*78
$GLGSV,1,1,00,3*7A
$GAGSV,1,1,00,7*73
$GAGSV,1,1,00,2*76
$GAGSV,1,1,00,1*75
$GAGSV,1,1,00,5*71
$GBGSV,2,1,07,21,74,266,51,22,41,149,48,26,,,43,36,43,058,47,1*4E
$GBGSV,2,2,07,38,,,41,42,,,46,45,74,173,51,1*48
$GBGSV,1,1,00,B*05
$GBGSV,2,1,07,21,74,266,50,22,41,149,48,26,,,42,36,43,058,48,8*48
$GBGSV,2,2,07,38,,,38,42,,,44,45,74,173,49,8*44
$GBGSV,2,1,07,21,74,266,51,22,41,149,46,26,,,42,36,43,058,45,3*41
$GBGSV,2,2,07,38,,,38,42,,,43,45,74,173,50,3*40
$GBGSV,2,1,07,21,74,266,51,22,41,149,49,26,,,42,36,43,058,48,5*45
$GBGSV,2,2,07,38,,,40,42,,,47,45,74,173,52,5*4F
$GBGSV,2,1,07,21,74,266,51,22,41,149,52,26,,,44,36,43,058,51,6*42
$GBGSV,2,2,07,38,,,39,42,,,47,45,74,173,52,6*42
$GQGSV,1,1,00,1*65
$GQGSV,1,1,00,6*62
$GQGSV,1,1,00,8*6C
$GIGSV,1,1,00,1*7D
$PQTMTXT,1,01,01,01,0x0008ec0705f13dc1*4A
$GNGGA,211804.500,4910.42688085,N,12304.40116536,W,5,10,0.85,9.354,M,-19.737,M,2.5,0569*6A
$GNRMC,211804.500,A,4910.42688085,N,12304.40116536,W,0.184,066.26,281024,,,F,V*27
$GNGLL,4910.42688085,N,12304.40116536,W,211804.500,A,D*5C
$GNVTG,066.26,T,,M,0.184,N,0.341,K,D*29
$PQTMTXT,1,01,01,01,0x0008ec0705f13dc1*4A
$GNGGA,211805.000,4910.42686352,N,12304.40117245,W,5,10,0.85,9.231,M,-19.737,M,3.0,0569*6D
$GNRMC,211805.000,A,4910.42686352,N,12304.40117245,W,0.082,066.26,281024,,,F,V*21
$GNGLL,4910.42686352,N,12304.40117245,W,211805.000,A,D*5D
$GNVTG,066.26,T,,M,0.082,N,0.151,K,D*2D
$GNGSA,A,3,03,04,07,09,16,26,,,,,,,1.58,0.85,1.32,1*0A
$GNGSA,A,3,,,,,,,,,,,,,1.58,0.85,1.32,2*03
$GNGSA,A,3,,,,,,,,,,,,,1.58,0.85,1.32,3*02
$GNGSA,A,3,21,22,36,45,,,,,,,,,1.58,0.85,1.32,4*02
$GNGSA,A,3,,,,,,,,,,,,,1.58,0.85,1.32,5*04
$GNGSA,A,3,,,,,,,,,,,,,1.58,0.85,1.32,6*07
$GPGSV,4,1,13,03,19,174,40,04,67,105,48,06,,,37,07,45,248,48,1*55
$GPGSV,4,2,13,09,76,302,51,11,,,39,16,46,075,46,20,,,39,1*6A
$GPGSV,4,3,13,26,22,047,42,30,,,40,44,,,44,46,,,45,1*54
$GPGSV,4,4,13,48,,,44,1*6A
$GPGSV,2,1,08,03,19,174,30,04,67,105,49,06,,,35,07,45,248,40,6*52
$GPGSV,2,2,08,09,76,302,45,11,,,38,26,22,047,35,30,,,36,6*6F
$GPGSV,1,1,00,8*6D
$GLGSV,1,1,00,1*78
$GLGSV,1,1,00,3*7A
$GAGSV,1,1,00,7*73
$GAGSV,1,1,00,2*76
$GAGSV,1,1,00,1*75
$GAGSV,1,1,00,5*71
$GBGSV,2,1,07,21,74,266,52,22,41,149,48,26,,,43,36,43,058,47,1*4D
$GBGSV,2,2,07,38,,,41,42,,,46,45,74,173,51,1*48
$GBGSV,1,1,00,B*05
$GBGSV,2,1,07,21,74,266,50,22,41,149,48,26,,,42,36,43,058,48,8*48
$GBGSV,2,2,07,38,,,38,42,,,45,45,74,173,49,8*45
$GBGSV,2,1,07,21,74,266,51,22,41,149,46,26,,,41,36,43,058,45,3*42
$GBGSV,2,2,07,38,,,38,42,,,43,45,74,173,50,3*40
$GBGSV,2,1,07,21,74,266,51,22,41,149,49,26,,,42,36,43,058,48,5*45
$GBGSV,2,2,07,38,,,40,42,,,47,45,74,173,52,5*4F
$GBGSV,2,1,07,21,74,266,51,22,41,149,52,26,,,44,36,43,058,51,6*42
$GBGSV,2,2,07,38,,,40,42,,,47,45,74,173,52,6*4C
$GQGSV,1,1,00,1*65
$GQGSV,1,1,00,6*62
$GQGSV,1,1,00,8*6C
$GIGSV,1,1,00,1*7D
$PQTMTXT,1,01,01,01,0x0008ec0705f13dc1*4A
$GNGGA,211805.500,4910.42684598,N,12304.40108059,W,5,10,0.82,9.326,M,-19.737,M,2.5,0569*6F
$GNRMC,211805.500,A,4910.42684598,N,12304.40108059,W,0.035,066.26,281024,,,F,V*2B
$GNGLL,4910.42684598,N,12304.40108059,W,211805.500,A,D*5B
$GNVTG,066.26,T,,M,0.035,N,0.064,K,D*26
$PQTMTXT,1,01,01,01,0x0008ec0705f13dc1*4A
$GNGGA,211806.000,4910.42684027,N,12304.40104019,W,5,10,0.82,9.353,M,-19.737,M,3.0,0569*66
$GNRMC,211806.000,A,4910.42684027,N,12304.40104019,W,0.056,066.26,281024,,,F,V*21
$GNGLL,4910.42684027,N,12304.40104019,W,211806.000,A,D*54
$GNVTG,066.26,T,,M,0.056,N,0.104,K,D*24
$GNGSA,A,3,03,04,07,09,16,26,,,,,,,1.53,0.82,1.30,1*04
$GNGSA,A,3,,,,,,,,,,,,,1.53,0.82,1.30,2*0D
$GNGSA,A,3,,,,,,,,,,,,,1.53,0.82,1.30,3*0C
$GNGSA,A,3,21,22,36,45,,,,,,,,,1.53,0.82,1.30,4*0C
$GNGSA,A,3,,,,,,,,,,,,,1.53,0.82,1.30,5*0A
$GNGSA,A,3,,,,,,,,,,,,,1.53,0.82,1.30,6*09
$GPGSV,4,1,13,03,19,174,40,04,67,105,48,06,,,37,07,45,248,49,1*54
$GPGSV,4,2,13,09,76,302,51,11,,,38,16,46,075,46,20,,,39,1*6B
$GPGSV,4,3,13,26,22,047,42,30,,,40,44,,,44,46,,,46,1*57
$GPGSV,4,4,13,48,,,45,1*6B
$GPGSV,2,1,08,03,19,174,30,04,67,105,49,06,,,34,07,45,248,40,6*53
$GPGSV,2,2,08,09,76,302,45,11,,,38,26,22,047,35,30,,,36,6*6F
$GPGSV,1,1,00,8*6D
$GLGSV,1,1,00,1*78
$GLGSV,1,1,00,3*7A
$GAGSV,1,1,00,7*73
$GAGSV,1,1,00,2*76
$GAGSV,1,1,00,1*75
$GAGSV,1,1,00,5*71
$GBGSV,2,1,07,21,74,266,52,22,41,149,48,26,,,43,36,43,058,47,1*4D
$GBGSV,2,2,07,38,,,41,42,,,46,45,74,173,51,1*48
$GBGSV,1,1,00,B*05
$GBGSV,2,1,07,21,74,266,50,22,41,149,48,26,,,42,36,43,058,48,8*48
$GBGSV,2,2,07,38,,,38,42,,,45,45,74,173,49,8*45
$GBGSV,2,1,07,21,74,266,51,22,41,149,46,26,,,41,36,43,058,45,3*42
$GBGSV,2,2,07,38,,,38,42,,,43,45,74,173,50,3*40
$GBGSV,2,1,07,21,74,266,51,22,41,149,49,26,,,42,36,43,058,48,5*45
$GBGSV,2,2,07,38,,,40,42,,,47,45,74,173,52,5*4F
$GBGSV,2,1,07,21,74,266,51,22,41,149,52,26,,,44,36,43,058,51,6*42
$GBGSV,2,2,07,38,,,40,42,,,47,45,74,173,51,6*4F
$GQGSV,1,1,00,1*65
$GQGSV,1,1,00,6*62
$GQGSV,1,1,00,8*6C
$GIGSV,1,1,00,1*7D
$PQTMTXT,1,01,01,01,0x0008ec0705f13dc1*4A
$GNGGA,211806.500,4910.42681534,N,12304.40094986,W,5,10,0.82,9.440,M,-19.737,M,1.5,0569*64
$GNRMC,211806.500,A,4910.42681534,N,12304.40094986,W,0.020,066.26,281024,,,F,V*20
$GNGLL,4910.42681534,N,12304.40094986,W,211806.500,A,D*54
$GNVTG,066.26,T,,M,0.020,N,0.038,K,D*2B
$PQTMTXT,1,01,01,01,0x0008ec0705f13dc1*4A
$GNGGA,211807.000,4910.42680196,N,12304.40090240,W,5,10,0.82,9.490,M,-19.737,M,2.0,0569*63
$GNRMC,211807.000,A,4910.42680196,N,12304.40090240,W,0.072,066.26,281024,,,F,V*2B
$GNGLL,4910.42680196,N,12304.40090240,W,211807.000,A,D*58
$GNVTG,066.26,T,,M,0.072,N,0.133,K,D*26
$GNGSA,A,3,03,04,07,09,16,26,,,,,,,1.53,0.82,1.30,1*04
$GNGSA,A,3,,,,,,,,,,,,,1.53,0.82,1.30,2*0D
$GNGSA,A,3,,,,,,,,,,,,,1.53,0.82,1.30,3*0C
$GNGSA,A,3,21,22,36,45,,,,,,,,,1.53,0.82,1.30,4*0C
$GNGSA,A,3,,,,,,,,,,,,,1.53,0.82,1.30,5*0A
$GNGSA,A,3,,,,,,,,,,,,,1.53,0.82,1.30,6*09
$GPGSV,4,1,14,03,19,174,40,04,67,105,48,06,,,37,07,45,248,48,1*52
$GPGSV,4,2,14,09,76,302,51,11,,,38,16,46,075,46,20,,,39,1*6C
$GPGSV,4,3,14,26,22,047,42,27,,,36,30,,,40,44,,,44,1*50
$GPGSV,4,4,14,46,,,46,48,,,45,1*6C
$GPGSV,2,1,08,03,19,174,30,04,67,105,49,06,,,34,07,45,248,40,6*53
$GPGSV,2,2,08,09,76,302,45,11,,,39,26,22,047,35,30,,,36,6*6E
$GPGSV,1,1,00,8*6D
$GLGSV,1,1,00,1*78
$GLGSV,1,1,00,3*7A
$GAGSV,1,1,00,7*73
$GAGSV,1,1,00,2*76
$GAGSV,1,1,00,1*75
$GAGSV,1,1,00,5*71
$GBGSV,2,1,07,21,74,266,52,22,41,149,48,26,,,43,36,43,058,48,1*42
$GBGSV,2,2,07,38,,,41,42,,,46,45,74,173,51,1*48
$GBGSV,1,1,00,B*05
$GBGSV,2,1,07,21,74,266,50,22,41,149,48,26,,,42,36,43,058,48,8*48
$GBGSV,2,2,07,38,,,38,42,,,45,45,74,173,49,8*45
$GBGSV,2,1,07,21,74,266,50,22,41,149,46,26,,,41,36,43,058,45,3*43
$GBGSV,2,2,07,38,,,38,42,,,43,45,74,173,50,3*40
$GBGSV,2,1,07,21,74,266,52,22,41,149,49,26,,,42,36,43,058,49,5*47
$GBGSV,2,2,07,38,,,40,42,,,47,45,74,173,52,5*4F
$GBGSV,2,1,07,21,74,266,51,22,41,149,52,26,,,44,36,43,058,51,6*42
$GBGSV,2,2,07,38,,,40,42,,,47,45,74,173,51,6*4F
$GQGSV,1,1,00,1*65
$GQGSV,1,1,00,6*62
$GQGSV,1,1,00,8*6C
$GIGSV,1,1,00,1*7D
$PQTMTXT,1,01,01,01,0x0008ec0705f13dc1*4A
$GNGGA,211807.500,4910.42679609,N,12304.40082786,W,5,10,0.83,9.573,M,-19.737,M,2.5,0569*65
$GNRMC,211807.500,A,4910.42679609,N,12304.40082786,W,0.058,066.26,281024,,,F,V*2D
$GNGLL,4910.42679609,N,12304.40082786,W,211807.500,A,D*56
$GNVTG,066.26,T,,M,0.058,N,0.108,K,D*26
$PQTMTXT,1,01,01,01,0x0008ec0705f13dc1*4A
$GNGGA,211808.000,4910.42679283,N,12304.40078924,W,5,10,0.83,9.618,M,-19.737,M,3.0,0569*60
$GNRMC,211808.000,A,4910.42679283,N,12304.40078924,W,0.055,066.26,281024,,,F,V*2F
$GNGLL,4910.42679283,N,12304.40078924,W,211808.000,A,D*59
$GNVTG,066.26,T,,M,0.055,N,0.103,K,D*20
$GNGSA,A,3,03,04,07,09,16,26,,,,,,,1.60,0.83,1.36,1*03
$GNGSA,A,3,,,,,,,,,,,,,1.60,0.83,1.36,2*0A
$GNGSA,A,3,,,,,,,,,,,,,1.60,0.83,1.36,3*0B
$GNGSA,A,3,21,22,36,45,,,,,,,,,1.60,0.83,1.36,4*0B
$GNGSA,A,3,,,,,,,,,,,,,1.60,0.83,1.36,5*0D
$GNGSA,A,3,,,,,,,,,,,,,1.60,0.83,1.36,6*0E
$GPGSV,4,1,14,03,19,174,40,04,67,105,48,06,,,37,07,45,248,48,1*52
$GPGSV,4,2,14,09,76,302,51,11,,,39,16,46,075,46,20,,,39,1*6D
$GPGSV,4,3,14,26,22,047,42,27,,,36,30,,,40,44,,,45,1*51
$GPGSV,4,4,14,46,,,45,48,,,44,1*6E
$GPGSV,3,1,09,03,19,174,30,04,67,105,49,06,,,35,07,45,248,40,6*52
$GPGSV,3,2,09,09,76,302,45,11,,,39,26,22,047,35,27,,,33,6*6D
$GPGSV,3,3,09,30,,,36,6*6C
$GPGSV,2,1,05,03,19,174,42,04,67,105,53,09,76,302,53,26,22,047,44,8*6B
$GPGSV,2,2,05,30,,,42,8*6D
$GLGSV,1,1,00,1*78
$GLGSV,1,1,00,3*7A
$GAGSV,1,1,00,7*73
$GAGSV,1,1,00,2*76
$GAGSV,1,1,00,1*75
$GAGSV,1,1,00,5*71
$GBGSV,2,1,07,21,74,266,52,22,41,149,48,26,,,44,36,43,058,48,1*45
$GBGSV,2,2,07,38,,,41,42,,,46,45,74,173,51,1*48
$GBGSV,1,1,00,B*05
$GBGSV,2,1,07,21,74,266,50,22,41,149,48,26,,,42,36,43,058,48,8*48
$GBGSV,2,2,07,38,,,38,42,,,44,45,74,173,49,8*44
$GBGSV,2,1,07,21,74,266,51,22,41,149,46,26,,,41,36,43,058,45,3*42
$GBGSV,2,2,07,38,,,38,42,,,43,45,74,173,50,3*40
$GBGSV,2,1,07,21,74,266,52,22,41,149,49,26,,,42,36,43,058,48,5*46
$GBGSV,2,2,07,38,,,40,42,,,47,45,74,173,52,5*4F
$GBGSV,2,1,07,21,74,266,51,22,41,149,52,26,,,44,36,43,058,51,6*42
$GBGSV,2,2,07,38,,,39,42,,,47,45,74,173,51,6*41
$GQGSV,1,1,00,1*65
$GQGSV,1,1,00,6*62
$GQGSV,1,1,00,8*6C
$GIGSV,1,1,00,1*7D
$PQTMTXT,1,01,01,01,0x0008ec0705f13dc1*4A
$GNGGA,211808.500,4910.42678144,N,12304.40069761,W,5,10,0.74,9.755,M,-19.737,M,1.5,0569*64
$GNRMC,211808.500,A,4910.42678144,N,12304.40069761,W,0.010,066.26,281024,,,F,V*2D
$GNGLL,4910.42678144,N,12304.40069761,W,211808.500,A,D*5A
$GNVTG,066.26,T,,M,0.010,N,0.019,K,D*2B
$PQTMTXT,1,01,01,01,0x0008ec0705f53dc1*4E
$GNGGA,211809.000,4910.42677497,N,12304.40064654,W,5,10,0.74,9.840,M,-19.737,M,2.0,0569*63
$GNRMC,211809.000,A,4910.42677497,N,12304.40064654,W,0.149,066.26,281024,,,F,V*2A
$GNGLL,4910.42677497,N,12304.40064654,W,211809.000,A,D*50
$GNVTG,066.26,T,,M,0.149,N,0.275,K,D*2E
$GNGSA,A,3,03,04,07,09,16,26,,,,,,,1.30,0.74,1.06,1*0D
$GNGSA,A,3,,,,,,,,,,,,,1.30,0.74,1.06,2*04
$GNGSA,A,3,,,,,,,,,,,,,1.30,0.74,1.06,3*05
$GNGSA,A,3,21,22,36,45,,,,,,,,,1.30,0.74,1.06,4*05
$GNGSA,A,3,,,,,,,,,,,,,1.30,0.74,1.06,5*03
$GNGSA,A,3,,,,,,,,,,,,,1.30,0.74,1.06,6*00
$GPGSV,4,1,14,03,19,174,40,04,67,105,47,06,,,38,07,45,248,48,1*52
$GPGSV,4,2,14,09,76,302,51,11,,,39,16,46,075,46,20,,,39,1*6D
$GPGSV,4,3,14,26,22,047,42,27,,,36,30,,,40,44,,,45,1*51
$GPGSV,4,4,14,46,,,45,48,,,44,1*6E
$GPGSV,3,1,09,03,19,174,31,04,67,105,49,06,,,34,07,45,248,41,6*53
$GPGSV,3,2,09,09,76,302,45,11,,,39,26,22,047,35,27,,,34,6*6A
$GPGSV,3,3,09,30,,,36,6*6C
$GPGSV,2,1,05,03,19,174,42,04,67,105,53,09,76,302,53,26,22,047,44,8*6B
$GPGSV,2,2,05,30,,,42,8*6D
$GLGSV,1,1,00,1*78
$GLGSV,1,1,00,3*7A
$GAGSV,1,1,00,7*73
$GAGSV,1,1,00,2*76
$GAGSV,1,1,00,1*75
$GAGSV,1,1,00,5*71
$GBGSV,2,1,07,21,74,266,52,22,41,149,48,26,,,43,36,43,058,48,1*42
$GBGSV,2,2,07,38,,,41,42,,,46,45,74,173,51,1*48
$GBGSV,1,1,00,B*05
$GBGSV,2,1,07,21,74,266,50,22,41,149,48,26,,,42,36,43,058,48,8*48
$GBGSV,2,2,07,38,,,38,42,,,44,45,74,173,49,8*44
$GBGSV,2,1,07,21,74,266,50,22,41,149,46,26,,,41,36,43,058,45,3*43
$GBGSV,2,2,07,38,,,38,42,,,43,45,74,173,50,3*40
$GBGSV,2,1,07,21,74,266,52,22,41,149,49,26,,,42,36,43,058,48,5*46
$GBGSV,2,2,07,38,,,40,42,,,47,45,74,173,52,5*4F
$GBGSV,2,1,07,21,74,266,51,22,41,149,52,26,,,44,36,43,058,51,6*42
$GBGSV,2,2,07,38,,,39,42,,,47,45,74,173,51,6*41
$GQGSV,1,1,00,1*65
$GQGSV,1,1,00,6*62
$GQGSV,1,1,00,8*6C
$GIGSV,1,1,00,1*7D
$PQTMTXT,1,01,01,01,0x0008ec0705f53dc1*4E
$GNGGA,211809.500,4910.42675603,N,12304.40060157,W,5,10,0.74,9.903,M,-19.737,M,2.5,0569*68
$GNRMC,211809.500,A,4910.42675603,N,12304.40060157,W,0.133,066.26,281024,,,F,V*2F
$GNGLL,4910.42675603,N,12304.40060157,W,211809.500,A,D*58
$GNVTG,066.26,T,,M,0.133,N,0.247,K,D*22
$PQTMTXT,1,01,01,01,0x0008ec0705f53dc1*4E
$GNGGA,211810.000,4910.42674690,N,12304.40058077,W,5,10,0.74,9.926,M,-19.737,M,3.0,0569*65
$GNRMC,211810.000,A,4910.42674690,N,12304.40058077,W,0.091,066.26,281024,,,F,V*28
$GNGLL,4910.42674690,N,12304.40058077,W,211810.000,A,D*56
$GNVTG,066.26,T,,M,0.091,N,0.169,K,D*24
$GNGSA,A,3,03,04,07,09,16,26,,,,,,,1.30,0.74,1.06,1*0D
$GNGSA,A,3,,,,,,,,,,,,,1.30,0.74,1.06,2*04
$GNGSA,A,3,,,,,,,,,,,,,1.30,0.74,1.06,3*05
$GNGSA,A,3,21,22,36,45,,,,,,,,,1.30,0.74,1.06,4*05
$GNGSA,A,3,,,,,,,,,,,,,1.30,0.74,1.06,5*03
$GNGSA,A,3,,,,,,,,,,,,,1.30,0.74,1.06,6*00
$GPGSV,4,1,14,03,19,174,40,04,67,105,47,06,,,38,07,45,248,48,1*52
$GPGSV,4,2,14,09,76,302,51,11,,,39,16,46,075,46,20,,,39,1*6D
$GPGSV,4,3,14,26,22,047,42,27,,,36,30,,,39,44,,,44,1*5E
$GPGSV,4,4,14,46,,,45,48,,,45,1*6F
$GPGSV,3,1,09,03,19,174,30,04,67,105,49,06,,,34,07,45,248,41,6*52
$GPGSV,3,2,09,09,76,302,45,11,,,39,26,22,047,36,27,,,34,6*69
$GPGSV,3,3,09,30,,,36,6*6C
$GPGSV,2,1,05,03,19,174,42,04,67,105,53,09,76,302,53,26,22,047,44,8*6B
$GPGSV,2,2,05,30,,,42,8*6D
$GLGSV,1,1,00,1*78
$GLGSV,1,1,00,3*7A
$GAGSV,1,1,00,7*73
$GAGSV,1,1,00,2*76
$GAGSV,1,1,00,1*75
$GAGSV,1,1,00,5*71
$GBGSV,2,1,07,21,74,266,52,22,41,149,48,26,,,44,36,43,058,48,1*45
$GBGSV,2,2,07,38,,,41,42,,,46,45,74,173,50,1*49
$GBGSV,1,1,00,B*05
$GBGSV,2,1,07,21,74,266,50,22,41,149,48,26,,,42,36,43,058,48,8*48
$GBGSV,2,2,07,38,,,39,42,,,45,45,74,173,49,8*44
$GBGSV,2,1,07,21,74,266,50,22,41,149,46,26,,,41,36,43,058,45,3*43
$GBGSV,2,2,07,38,,,38,42,,,43,45,74,173,50,3*40
$GBGSV,2,1,07,21,74,266,52,22,41,149,49,26,,,42,36,43,058,48,5*46
$GBGSV,2,2,07,38,,,40,42,,,47,45,74,173,52,5*4F
$GBGSV,2,1,07,21,74,266,51,22,41,149,52,26,,,44,36,43,058,51,6*42
$GBGSV,2,2,07,38,,,39,42,,,47,45,74,173,51,6*41
$GQGSV,1,1,00,1*65
$GQGSV,1,1,00,6*62
$GQGSV,1,1,00,8*6C
$GIGSV,1,1,00,1*7D
$PQTMTXT,1,01,01,01,0x0008ec0705f53dc1*4E
$GNGGA,211810.500,4910.42672542,N,12304.40058971,W,5,10,0.74,9.880,M,-19.737,M,2.5,0569*6C
$GNRMC,211810.500,A,4910.42672542,N,12304.40058971,W,0.039,066.26,281024,,,F,V*2A
$GNGLL,4910.42672542,N,12304.40058971,W,211810.500,A,D*56
$GNVTG,066.26,T,,M,0.039,N,0.072,K,D*2D
$PQTMTXT,1,01,01,01,0x0008ec0705f53dc1*4E
$GNGGA,211811.000,4910.42671554,N,12304.40060090,W,5,10,0.74,9.836,M,-19.737,M,3.0,0569*68
$GNRMC,211811.000,A,4910.42671554,N,12304.40060090,W,0.010,066.26,281024,,,F,V*2C
$GNGLL,4910.42671554,N,12304.40060090,W,211811.000,A,D*5B
$GNVTG,066.26,T,,M,0.010,N,0.018,K,D*2A
$GNGSA,A,3,03,04,07,09,16,26,,,,,,,1.30,0.74,1.06,1*0D
$GNGSA,A,3,,,,,,,,,,,,,1.30,0.74,1.06,2*04
$GNGSA,A,3,,,,,,,,,,,,,1.30,0.74,1.06,3*05
$GNGSA,A,3,21,22,36,45,,,,,,,,,1.30,0.74,1.06,4*05
$GNGSA,A,3,,,,,,,,,,,,,1.30,0.74,1.06,5*03
$GNGSA,A,3,,,,,,,,,,,,,1.30,0.74,1.06,6*00
$GPGSV,4,1,14,03,19,174,40,04,67,105,48,06,,,38,07,45,248,49,1*5C
$GPGSV,4,2,14,09,76,302,51,11,,,39,16,46,075,46,20,,,39,1*6D
$GPGSV,4,3,14,26,22,047,43,27,,,36,30,,,40,44,,,45,1*50
$GPGSV,4,4,14,46,,,45,48,,,44,1*6E
$GPGSV,3,1,09,03,19,174,31,04,67,105,49,06,,,34,07,45,248,41,6*53
$GPGSV,3,2,09,09,76,302,45,11,,,39,26,22,047,35,27,,,34,6*6A
$GPGSV,3,3,09,30,,,36,6*6C
$GPGSV,2,1,05,03,19,174,42,04,67,105,53,09,76,302,53,26,22,047,44,8*6B
$GPGSV,2,2,05,30,,,42,8*6D
$GLGSV,1,1,00,1*78
$GLGSV,1,1,00,3*7A
$GAGSV,1,1,00,7*73
$GAGSV,1,1,00,2*76
$GAGSV,1,1,00,1*75
$GAGSV,1,1,00,5*71
$GBGSV,2,1,07,21,74,266,52,22,41,149,49,26,,,44,36,43,058,48,1*44
$GBGSV,2,2,07,38,,,41,42,,,46,45,74,173,51,1*48
$GBGSV,1,1,00,B*05
$GBGSV,2,1,07,21,74,266,50,22,41,149,49,26,,,42,36,43,058,48,8*49
$GBGSV,2,2,07,38,,,39,42,,,44,45,74,173,49,8*45
$GBGSV,2,1,07,21,74,266,51,22,41,149,46,26,,,42,36,43,058,45,3*41
$GBGSV,2,2,07,38,,,38,42,,,43,45,74,173,50,3*40
$GBGSV,2,1,07,21,74,266,52,22,41,149,49,26,,,42,36,43,058,48,5*46
$GBGSV,2,2,07,38,,,40,42,,,47,45,74,173,52,5*4F
$GBGSV,2,1,07,21,74,266,51,22,41,149,52,26,,,44,36,43,058,51,6*42
$GBGSV,2,2,07,38,,,39,42,,,47,45,74,173,51,6*41
$GQGSV,1,1,00,1*65
$GQGSV,1,1,00,6*62
$GQGSV,1,1,00,8*6C
$GIGSV,1,1,00,1*7D
$PQTMTXT,1,01,01,01,0x0008ec0705f53dc1*4E
$GNGGA,211811.500,4910.42670373,N,12304.40059976,W,5,10,0.76,9.837,M,-19.737,M,2.5,0569*63
$GNRMC,211811.500,A,4910.42670373,N,12304.40059976,W,0.007,066.26,281024,,,F,V*26
$GNGLL,4910.42670373,N,12304.40059976,W,211811.500,A,D*57
$GNVTG,066.26,T,,M,0.007,N,0.013,K,D*27
$PQTMTXT,1,01,01,01,0x0008ec0705f53dc1*4E
$GNGGA,211812.000,4910.42669805,N,12304.40059946,W,5,10,0.76,9.832,M,-19.737,M,3.0,0569*65
$GNRMC,211812.000,A,4910.42669805,N,12304.40059946,W,0.035,066.26,281024,,,F,V*20
$GNGLL,4910.42669805,N,12304.40059946,W,211812.000,A,D*50
$GNVTG,066.26,T,,M,0.035,N,0.065,K,D*27
$GNGSA,A,3,03,04,07,09,16,26,,,,,,,1.33,0.76,1.10,1*0B
$GNGSA,A,3,,,,,,,,,,,,,1.33,0.76,1.10,2*02
$GNGSA,A,3,,,,,,,,,,,,,1.33,0.76,1.10,3*03
$GNGSA,A,3,21,22,36,45,,,,,,,,,1.33,0.76,1.10,4*03
$GNGSA,A,3,,,,,,,,,,,,,1.33,0.76,1.10,5*05
$GNGSA,A,3,,,,,,,,,,,,,1.33,0.76,1.10,6*06
$GPGSV,4,1,14,03,19,174,40,04,67,105,48,06,,,38,07,45,248,48,1*5D
$GPGSV,4,2,14,09,76,302,51,11,,,39,16,46,075,46,20,,,39,1*6D
$GPGSV,4,3,14,26,22,047,42,27,,,36,30,,,40,44,,,46,1*52
$GPGSV,4,4,14,46,,,45,48,,,44,1*6E
$GPGSV,3,1,09,03,19,174,31,04,67,105,49,06,,,34,07,45,248,41,6*53
$GPGSV,3,2,09,09,76,302,45,11,,,39,26,22,047,35,27,,,34,6*6A
$GPGSV,3,3,09,30,,,36,6*6C
$GPGSV,2,1,05,03,19,174,42,04,67,105,53,09,76,302,53,26,22,047,44,8*6B
$GPGSV,2,2,05,30,,,42,8*6D
$GLGSV,1,1,00,1*78
$GLGSV,1,1,00,3*7A
$GAGSV,1,1,00,7*73
$GAGSV,1,1,00,2*76
$GAGSV,1,1,00,1*75
$GAGSV,1,1,00,5*71
$GBGSV,2,1,07,21,74,266,52,22,41,149,48,26,,,44,36,43,058,48,1*45
$GBGSV,2,2,07,38,,,41,42,,,46,45,74,173,51,1*48
$GBGSV,1,1,00,B*05
$GBGSV,2,1,07,21,74,266,50,22,41,149,48,26,,,42,36,43,058,48,8*48
$GBGSV,2,2,07,38,,,39,42,,,44,45,74,173,49,8*45
$GBGSV,2,1,07,21,74,266,50,22,41,149,46,26,,,41,36,43,058,45,3*43
$GBGSV,2,2,07,38,,,38,42,,,43,45,74,173,50,3*40
$GBGSV,2,1,07,21,74,266,51,22,41,149,49,26,,,42,36,43,058,48,5*45
$GBGSV,2,2,07,38,,,40,42,,,47,45,74,173,51,5*4C
$GBGSV,2,1,07,21,74,266,51,22,41,149,52,26,,,43,36,43,058,51,6*45
$GBGSV,2,2,07,38,,,39,42,,,47,45,74,173,51,6*41
$GQGSV,1,1,00,1*65
$GQGSV,1,1,00,6*62
$GQGSV,1,1,00,8*6C
$GIGSV,1,1,00,1*7D
$PQTMTXT,1,01,01,01,0x0008ec0705f53dc1*4E
$GNGGA,211812.500,4910.42669052,N,12304.40057631,W,5,10,0.76,9.886,M,-19.737,M,2.5,0569*60
$GNRMC,211812.500,A,4910.42669052,N,12304.40057631,W,0.004,066.26,281024,,,F,V*2C
$GNGLL,4910.42669052,N,12304.40057631,W,211812.500,A,D*5E
$GNVTG,066.26,T,,M,0.004,N,0.007,K,D*21
$PQTMTXT,1,01,01,01,0x0008ec0705f53dc1*4E
$GNGGA,211813.000,4910.42668576,N,12304.40056089,W,5,10,0.76,9.931,M,-19.737,M,3.0,0569*6B
$GNRMC,211813.000,A,4910.42668576,N,12304.40056089,W,0.034,066.26,281024,,,F,V*2D
$GNGLL,4910.42668576,N,12304.40056089,W,211813.000,A,D*5C
$GNVTG,066.26,T,,M,0.034,N,0.062,K,D*21
$GNGSA,A,3,03,04,07,09,16,26,,,,,,,1.33,0.76,1.10,1*0B
$GNGSA,A,3,,,,,,,,,,,,,1.33,0.76,1.10,2*02
$GNGSA,A,3,,,,,,,,,,,,,1.33,0.76,1.10,3*03
$GNGSA,A,3,21,22,36,45,,,,,,,,,1.33,0.76,1.10,4*03
$GNGSA,A,3,,,,,,,,,,,,,1.33,0.76,1.10,5*05
$GNGSA,A,3,,,,,,,,,,,,,1.33,0.76,1.10,6*06
$GPGSV,4,1,15,03,19,174,39,04,67,105,48,06,,,38,07,45,248,48,1*52
$GPGSV,4,2,15,09,77,302,50,11,,,39,16,46,075,45,20,,,40,1*61
$GPGSV,4,3,15,26,22,047,43,27,,,36,30,,,40,31,,,30,1*51
$GPGSV,4,4,15,44,,,46,46,,,46,48,,,44,1*6E
$GPGSV,3,1,09,03,19,174,31,04,67,105,49,06,,,34,07,45,248,41,6*53
$GPGSV,3,2,09,09,77,302,45,11,,,39,26,22,047,35,27,,,34,6*6B
$GPGSV,3,3,09,30,,,36,6*6C
$GPGSV,2,1,07,03,19,174,42,04,67,105,52,06,,,41,09,77,302,53,8*5D
$GPGSV,2,2,07,26,22,047,44,27,,,39,30,,,42,8*57
$GLGSV,1,1,00,1*78
$GLGSV,1,1,00,3*7A
$GAGSV,1,1,00,7*73
$GAGSV,1,1,00,2*76
$GAGSV,1,1,00,1*75
$GAGSV,1,1,00,5*71
$GBGSV,2,1,07,21,74,266,52,22,41,149,48,26,,,44,36,43,058,47,1*4A
$GBGSV,2,2,07,38,,,41,42,,,46,45,74,173,51,1*48
$GBGSV,1,1,00,B*05
$GBGSV,2,1,07,21,74,266,49,22,41,149,48,26,,,42,36,43,058,48,8*40
$GBGSV,2,2,07,38,,,38,42,,,44,45,74,173,49,8*44
$GBGSV,2,1,07,21,74,266,51,22,41,149,46,26,,,41,36,43,058,44,3*43
$GBGSV,2,2,07,38,,,38,42,,,43,45,74,173,49,3*48
$GBGSV,2,1,07,21,74,266,51,22,41,149,49,26,,,42,36,43,058,48,5*45
$GBGSV,2,2,07,38,,,40,42,,,47,45,74,173,51,5*4C
$GBGSV,2,1,07,21,74,266,51,22,41,149,52,26,,,43,36,43,058,51,6*45
$GBGSV,2,2,07,38,,,39,42,,,47,45,74,173,51,6*41
$GQGSV,1,1,00,1*65
$GQGSV,1,1,00,6*62
$GQGSV,1,1,00,8*6C
$GIGSV,1,1,00,1*7D
$PQTMTXT,1,01,01,01,0x0008ec0705f53dc1*4E
$GNGGA,211813.500,4910.42668001,N,12304.40054332,W,5,10,0.76,10.003,M,-19.737,M,2.5,0569*5E
$GNRMC,211813.500,A,4910.42668001,N,12304.40054332,W,0.031,066.26,281024,,,F,V*29
$GNGLL,4910.42668001,N,12304.40054332,W,211813.500,A,D*5D
$GNVTG,066.26,T,,M,0.031,N,0.058,K,D*2D
$PQTMTXT,1,01,01,01,0x0008ec0705f53dc1*4E
$GNGGA,211814.000,4910.42667689,N,12304.40053516,W,5,10,0.76,10.034,M,-19.737,M,3.0,0569*52
$GNRMC,211814.000,A,4910.42667689,N,12304.40053516,W,0.007,066.26,281024,,,F,V*20
$GNGLL,4910.42667689,N,12304.40053516,W,211814.000,A,D*51
$GNVTG,066.26,T,,M,0.007,N,0.012,K,D*26
$GNGSA,A,3,03,04,07,09,16,26,,,,,,,1.33,0.76,1.10,1*0B
$GNGSA,A,3,,,,,,,,,,,,,1.33,0.76,1.10,2*02
$GNGSA,A,3,,,,,,,,,,,,,1.33,0.76,1.10,3*03
$GNGSA,A,3,21,22,36,45,,,,,,,,,1.33,0.76,1.10,4*03
$GNGSA,A,3,,,,,,,,,,,,,1.33,0.76,1.10,5*05
$GNGSA,A,3,,,,,,,,,,,,,1.33,0.76,1.10,6*06
$GPGSV,4,1,15,03,19,174,40,04,67,105,48,06,,,37,07,45,248,48,1*53
$GPGSV,4,2,15,09,77,302,50,11,,,39,16,46,075,45,20,,,40,1*61
$GPGSV,4,3,15,26,22,047,42,27,,,36,30,,,39,31,,,30,1*5E
$GPGSV,4,4,15,44,,,45,46,33,188,45,48,33,182,44,1*64
$GPGSV,3,1,10,03,19,174,31,04,67,105,49,06,,,35,07,45,248,40,6*5B
$GPGSV,3,2,10,09,77,302,45,11,,,38,26,22,047,35,27,,,35,6*63
$GPGSV,3,3,10,30,,,37,31,,,24,6*61
$GPGSV,2,1,07,03,19,174,42,04,67,105,52,06,,,41,09,77,302,52,8*5C
$GPGSV,2,2,07,26,22,047,44,27,,,38,30,,,42,8*56
$GLGSV,1,1,00,1*78
$GLGSV,1,1,00,3*7A
$GAGSV,1,1,00,7*73
$GAGSV,1,1,00,2*76
$GAGSV,1,1,00,1*75
$GAGSV,1,1,00,5*71
$GBGSV,2,1,07,21,74,266,51,22,41,149,48,26,,,44,36,43,058,47,1*49
$GBGSV,2,2,07,38,,,41,42,,,46,45,74,173,50,1*49
$GBGSV,1,1,00,B*05
$GBGSV,2,1,07,21,74,266,49,22,41,149,48,26,,,42,36,43,058,48,8*40
$GBGSV,2,2,07,38,,,38,42,,,44,45,74,173,49,8*44
$GBGSV,2,1,07,21,74,266,50,22,41,149,46,26,,,41,36,43,058,45,3*43
$GBGSV,2,2,07,38,,,38,42,,,43,45,74,173,50,3*40
$GBGSV,2,1,07,21,74,266,51,22,41,149,49,26,,,42,36,43,058,48,5*45
$GBGSV,2,2,07,38,,,40,42,,,47,45,74,173,51,5*4C
$GBGSV,2,1,07,21,74,266,51,22,41,149,52,26,,,43,36,43,058,51,6*45
$GBGSV,2,2,07,38,,,39,42,,,47,45,74,173,51,6*41
$GQGSV,1,1,00,1*65
$GQGSV,1,1,00,6*62
$GQGSV,1,1,00,8*6C
$GIGSV,1,1,00,1*7D
$PQTMTXT,1,01,01,01,0x0008ec0705f53dc1*4E
$GNGGA,211814.500,4910.42667125,N,12304.40051389,W,5,10,0.74,10.139,M,-19.737,M,2.5,0569*5E
$GNRMC,211814.500,A,4910.42667125,N,12304.40051389,W,0.025,066.26,281024,,,F,V*26
$GNGLL,4910.42667125,N,12304.40051389,W,211814.500,A,D*57
$GNVTG,066.26,T,,M,0.025,N,0.047,K,D*26
$PQTMTXT,1,01,01,01,0x0008ec0705f53dc1*4E
$GNGGA,211815.000,4910.42666906,N,12304.40050528,W,5,10,0.74,10.182,M,-19.737,M,3.0,0569*5A
$GNRMC,211815.000,A,4910.42666906,N,12304.40050528,W,0.012,066.26,281024,,,F,V*22
$GNGLL,4910.42666906,N,12304.40050528,W,211815.000,A,D*57
$GNVTG,066.26,T,,M,0.012,N,0.023,K,D*20
$GNGSA,A,3,03,04,07,09,16,26,,,,,,,1.30,0.74,1.06,1*0D
$GNGSA,A,3,,,,,,,,,,,,,1.30,0.74,1.06,2*04
$GNGSA,A,3,,,,,,,,,,,,,1.30,0.74,1.06,3*05
$GNGSA,A,3,21,22,36,45,,,,,,,,,1.30,0.74,1.06,4*05
$GNGSA,A,3,,,,,,,,,,,,,1.30,0.74,1.06,5*03
$GNGSA,A,3,,,,,,,,,,,,,1.30,0.74,1.06,6*00
$GPGSV,4,1,15,03,19,174,40,04,67,105,48,06,,,37,07,45,248,47,1*5C
$GPGSV,4,2,15,09,77,302,50,11,,,40,16,46,075,45,20,,,40,1*6F
$GPGSV,4,3,15,26,22,047,42,27,,,36,30,,,39,31,,,30,1*5E
$GPGSV,4,4,15,44,,,45,46,33,188,46,48,33,182,44,1*67
$GPGSV,3,1,10,03,19,174,31,04,67,105,49,06,,,35,07,45,248,41,6*5A
$GPGSV,3,2,10,09,77,302,45,11,,,38,26,22,047,35,27,,,35,6*63
$GPGSV,3,3,10,30,,,37,31,,,25,6*60
$GPGSV,2,1,07,03,19,174,42,04,67,105,52,06,,,41,09,77,302,53,8*5D
$GPGSV,2,2,07,26,22,047,44,27,,,38,30,,,42,8*56
$GLGSV,1,1,00,1*78
$GLGSV,1,1,00,3*7A
$GAGSV,1,1,00,7*73
$GAGSV,1,1,00,2*76
$GAGSV,1,1,00,1*75
$GAGSV,1,1,00,5*71
$GBGSV,2,1,08,14,,,35,21,74,266,52,22,41,149,48,26,,,44,1*7A
$GBGSV,2,2,08,36,43,058,48,38,,,41,42,,,46,45,74,173,51,1*74
$GBGSV,1,1,00,B*05
$GBGSV,2,1,08,14,,,30,21,74,266,50,22,41,149,48,26,,,42,8*72
$GBGSV,2,2,08,36,43,058,48,38,,,39,42,,,44,45,74,173,49,8*79
$GBGSV,2,1,07,21,74,266,51,22,41,149,46,26,,,42,36,43,058,45,3*41
$GBGSV,2,2,07,38,,,38,42,,,43,45,74,173,50,3*40
$GBGSV,2,1,07,21,74,266,51,22,41,149,49,26,,,42,36,43,058,48,5*45
$GBGSV,2,2,07,38,,,40,42,,,47,45,74,173,51,5*4C
$GBGSV,2,1,07,21,74,266,51,22,41,149,52,26,,,43,36,43,058,51,6*45
$GBGSV,2,2,07,38,,,39,42,,,47,45,74,173,51,6*41
$GQGSV,1,1,00,1*65
$GQGSV,1,1,00,6*62
$GQGSV,1,1,00,8*6C
$GIGSV,1,1,00,1*7D
$PQTMTXT,1,01,01,01,0x0008ec0705f53dc1*4E
$GNGGA,211815.500,4910.42666206,N,12304.40048627,W,5,10,0.76,10.275,M,-19.737,M,1.5,0569*5F
$GNRMC,211815.500,A,4910.42666206,N,12304.40048627,W,0.005,066.26,281024,,,F,V*2F
$GNGLL,4910.42666206,N,12304.40048627,W,211815.500,A,D*5C
$GNVTG,066.26,T,,M,0.005,N,0.009,K,D*2E
$PQTMTXT,1,01,01,01,0x0008ec0705f53dc1*4E
$GNGGA,211816.000,4910.42665926,N,12304.40047760,W,5,10,0.76,10.314,M,-19.737,M,2.0,0569*5E
$GNRMC,211816.000,A,4910.42665926,N,12304.40047760,W,0.047,066.26,281024,,,F,V*28
$GNGLL,4910.42665926,N,12304.40047760,W,211816.000,A,D*5D
$GNVTG,066.26,T,,M,0.047,N,0.088,K,D*21
$GNGSA,A,3,03,04,07,09,16,26,,,,,,,1.33,0.76,1.10,1*0B
$GNGSA,A,3,,,,,,,,,,,,,1.33,0.76,1.10,2*02
$GNGSA,A,3,,,,,,,,,,,,,1.33,0.76,1.10,3*03
$GNGSA,A,3,21,22,36,45,,,,,,,,,1.33,0.76,1.10,4*03
$GNGSA,A,3,,,,,,,,,,,,,1.33,0.76,1.10,5*05
$GNGSA,A,3,,,,,,,,,,,,,1.33,0.76,1.10,6*06
$GPGSV,4,1,15,03,19,174,40,04,67,105,48,06,,,37,07,45,248,48,1*53
$GPGSV,4,2,15,09,77,302,50,11,,,40,16,46,075,45,20,,,40,1*6F
$GPGSV,4,3,15,26,22,047,42,27,,,36,30,,,39,31,,,30,1*5E
$GPGSV,4,4,15,44,,,46,46,33,188,45,48,33,182,44,1*67
$GPGSV,3,1,10,03,19,174,31,04,67,105,49,06,,,34,07,45,248,40,6*5A
$GPGSV,3,2,10,09,77,302,44,11,,,38,26,22,047,35,27,,,34,6*63
$GPGSV,3,3,10,30,,,36,31,,,24,6*60
$GPGSV,2,1,07,03,19,174,42,04,67,105,52,06,,,41,09,77,302,53,8*5D
$GPGSV,2,2,07,26,22,047,44,27,,,38,30,,,42,8*56
$GLGSV,1,1,00,1*78
$GLGSV,1,1,00,3*7A
$GAGSV,1,1,00,7*73
$GAGSV,1,1,00,2*76
$GAGSV,1,1,00,1*75
$GAGSV,1,1,00,5*71
$GBGSV,2,1,08,14,,,35,21,74,266,52,22,41,149,48,26,,,44,1*7A
$GBGSV,2,2,08,36,43,058,48,38,,,41,42,,,46,45,74,173,51,1*74
$GBGSV,1,1,00,B*05
$GBGSV,2,1,08,14,,,30,21,74,266,50,22,41,149,48,26,,,42,8*72
$GBGSV,2,2,08,36,43,058,48,38,,,39,42,,,44,45,74,173,49,8*79
$GBGSV,2,1,07,21,74,266,51,22,41,149,46,26,,,42,36,43,058,45,3*41
$GBGSV,2,2,07,38,,,38,42,,,42,45,74,173,50,3*41
$GBGSV,2,1,07,21,74,266,51,22,41,149,49,26,,,42,36,43,058,48,5*45
$GBGSV,2,2,07,38,,,40,42,,,47,45,74,173,51,5*4C
$GBGSV,2,1,07,21,74,266,51,22,41,149,52,26,,,43,36,43,058,51,6*45
$GBGSV,2,2,07,38,,,40,42,,,47,45,74,173,51,6*4F
$GQGSV,1,1,00,1*65
$GQGSV,1,1,00,6*62
$GQGSV,1,1,00,8*6C
$GIGSV,1,1,00,1*7D
$PQTMTXT,1,01,01,01,0x0008ec0705f53dc1*4E
$GNGGA,211816.500,4910.42665337,N,12304.40046907,W,5,10,0.74,10.369,M,-19.737,M,2.5,0569*52
$GNRMC,211816.500,A,4910.42665337,N,12304.40046907,W,0.020,066.26,281024,,,F,V*28
$GNGLL,4910.42665337,N,12304.40046907,W,211816.500,A,D*5C
$GNVTG,066.26,T,,M,0.020,N,0.037,K,D*24
$PQTMTXT,1,01,01,01,0x0008ec1705f53dc1*4F
$GNGGA,211817.000,4910.42665000,N,12304.40046228,W,5,10,0.74,10.405,M,-19.737,M,3.0,0569*5E
$GNRMC,211817.000,A,4910.42665000,N,12304.40046228,W,0.036,066.26,281024,,,F,V*2A
$GNGLL,4910.42665000,N,12304.40046228,W,211817.000,A,D*59
$GNVTG,066.26,T,,M,0.036,N,0.066,K,D*27
$GNGSA,A,3,03,04,07,09,16,26,,,,,,,1.30,0.74,1.06,1*0D
$GNGSA,A,3,,,,,,,,,,,,,1.30,0.74,1.06,2*04
$GNGSA,A,3,,,,,,,,,,,,,1.30,0.74,1.06,3*05
$GNGSA,A,3,21,22,36,45,,,,,,,,,1.30,0.74,1.06,4*05
$GNGSA,A,3,,,,,,,,,,,,,1.30,0.74,1.06,5*03
$GNGSA,A,3,,,,,,,,,,,,,1.30,0.74,1.06,6*00
$GPGSV,4,1,15,03,19,174,40,04,67,105,48,06,,,37,07,45,248,48,1*53
$GPGSV,4,2,15,09,77,302,50,11,,,40,16,46,075,45,20,,,40,1*6F
$GPGSV,4,3,15,26,22,047,42,27,,,36,30,,,39,31,,,30,1*5E
$GPGSV,4,4,15,44,,,45,46,33,188,44,48,33,182,45,1*64
$GPGSV,3,1,10,03,19,174,31,04,67,105,49,06,,,34,07,45,248,41,6*5B
$GPGSV,3,2,10,09,77,302,45,11,,,38,26,22,047,35,27,,,34,6*62
$GPGSV,3,3,10,30,,,37,31,,,24,6*61
$GPGSV,2,1,07,03,19,174,42,04,67,105,53,06,,,41,09,77,302,53,8*5C
$GPGSV,2,2,07,26,22,047,44,27,,,38,30,,,42,8*56
$GLGSV,1,1,00,1*78
$GLGSV,1,1,00,3*7A
$GAGSV,1,1,00,7*73
$GAGSV,1,1,00,2*76
$GAGSV,1,1,00,1*75
$GAGSV,1,1,00,5*71
$GBGSV,2,1,08,14,,,35,21,74,266,52,22,41,149,48,26,,,44,1*7A
$GBGSV,2,2,08,36,43,058,48,38,,,41,42,,,46,45,74,173,51,1*74
$GBGSV,1,1,01,14,,,35,B*07
$GBGSV,2,1,08,14,,,30,21,74,266,50,22,41,149,48,26,,,42,8*72
$GBGSV,2,2,08,36,43,058,48,38,,,39,42,,,45,45,74,173,49,8*78
$GBGSV,2,1,07,21,74,266,51,22,41,149,46,26,,,41,36,43,058,45,3*42
$GBGSV,2,2,07,38,,,39,42,,,42,45,74,173,50,3*40
$GBGSV,2,1,07,21,74,266,51,22,41,149,49,26,,,42,36,43,058,49,5*44
$GBGSV,2,2,07,38,,,40,42,,,47,45,74,173,52,5*4F
$GBGSV,2,1,07,21,74,266,51,22,41,149,51,26,,,43,36,43,058,51,6*46
$GBGSV,2,2,07,38,,,40,42,,,46,45,74,173,51,6*4E
$GQGSV,1,1,00,1*65
$GQGSV,1,1,00,6*62
$GQGSV,1,1,00,8*6C
$GIGSV,1,1,00,1*7D
$PQTMTXT,1,01,01,01,0x0008ec1705f53dc1*4F
$GNGGA,211817.500,4910.42664748,N,12304.40045712,W,5,10,0.76,10.442,M,-19.737,M,1.5,0569*58
$GNRMC,211817.500,A,4910.42664748,N,12304.40045712,W,0.035,066.26,281024,,,F,V*29
$GNGLL,4910.42664748,N,12304.40045712,W,211817.500,A,D*59
$GNVTG,066.26,T,,M,0.035,N,0.065,K,D*27
$PQTMTXT,1,01,01,01,0x0008ec1705f53dc1*4F
$GNGGA,211818.000,4910.42664608,N,12304.40045508,W,5,10,0.76,10.457,M,-19.737,M,2.0,0569*5C
$GNRMC,211818.000,A,4910.42664608,N,12304.40045508,W,0.035,066.26,281024,,,F,V*2F
$GNGLL,4910.42664608,N,12304.40045508,W,211818.000,A,D*5F
$GNVTG,066.26,T,,M,0.035,N,0.065,K,D*27
$GNGSA,A,3,03,04,07,09,16,26,,,,,,,1.33,0.76,1.10,1*0B
$GNGSA,A,3,,,,,,,,,,,,,1.33,0.76,1.10,2*02
$GNGSA,A,3,,,,,,,,,,,,,1.33,0.76,1.10,3*03
$GNGSA,A,3,21,22,36,45,,,,,,,,,1.33,0.76,1.10,4*03
$GNGSA,A,3,,,,,,,,,,,,,1.33,0.76,1.10,5*05
$GNGSA,A,3,,,,,,,,,,,,,1.33,0.76,1.10,6*06
$GPGSV,4,1,15,03,19,174,40,04,67,105,48,06,,,37,07,45,248,48,1*53
$GPGSV,4,2,15,09,77,302,51,11,,,40,16,46,075,46,20,,,40,1*6D
$GPGSV,4,3,15,26,22,047,42,27,,,36,30,,,39,31,,,30,1*5E
$GPGSV,4,4,15,44,,,45,46,33,188,44,48,33,182,44,1*65
$GPGSV,3,1,10,03,19,174,31,04,67,105,49,06,,,34,07,45,248,40,6*5A
$GPGSV,3,2,10,09,77,302,45,11,,,38,26,22,047,35,27,,,34,6*62
$GPGSV,3,3,10,30,,,37,31,,,24,6*61
$GPGSV,2,1,07,03,19,174,42,04,67,105,53,06,,,41,09,77,302,53,8*5C
$GPGSV,2,2,07,26,22,047,44,27,,,38,30,,,42,8*56
$GLGSV,1,1,00,1*78
$GLGSV,1,1,00,3*7A
$GAGSV,1,1,00,7*73
$GAGSV,1,1,00,2*76
$GAGSV,1,1,00,1*75
$GAGSV,1,1,00,5*71
$GBGSV,2,1,08,14,,,34,21,74,266,52,22,41,149,49,26,,,44,1*7A
$GBGSV,2,2,08,36,43,058,48,38,,,41,42,,,46,45,74,173,51,1*74
$GBGSV,1,1,01,14,,,35,B*07
$GBGSV,2,1,08,14,,,30,21,74,266,50,22,41,149,48,26,,,42,8*72
$GBGSV,2,2,08,36,43,058,48,38,,,39,42,,,44,45,74,173,49,8*79
$GBGSV,2,1,07,21,74,266,51,22,41,149,46,26,,,41,36,43,058,44,3*43
$GBGSV,2,2,07,38,,,38,42,,,42,45,74,173,50,3*41
$GBGSV,2,1,07,21,74,266,51,22,41,149,49,26,,,42,36,43,058,48,5*45
$GBGSV,2,2,07,38,,,40,42,,,47,45,74,173,52,5*4F
$GBGSV,2,1,07,21,74,266,51,22,41,149,51,26,,,43,36,43,058,51,6*46
$GBGSV,2,2,07,38,,,40,42,,,46,45,74,173,51,6*4E
$GQGSV,1,1,00,1*65
$GQGSV,1,1,00,6*62
$GQGSV,1,1,00,8*6C
$GIGSV,1,1,00,1*7D
$PQTMTXT,1,01,01,01,0x0008ec1705f53dc1*4F
$GNGGA,211818.500,4910.42664212,N,12304.40046059,W,5,10,0.74,10.450,M,-19.737,M,2.5,0569*54
$GNRMC,211818.500,A,4910.42664212,N,12304.40046059,W,0.041,066.26,281024,,,F,V*24
$GNGLL,4910.42664212,N,12304.40046059,W,211818.500,A,D*57
$GNVTG,066.26,T,,M,0.041,N,0.077,K,D*27
$PQTMTXT,1,01,01,01,0x0008ec1705f53dc1*4F
$GNGGA,211819.000,4910.42664004,N,12304.40046392,W,5,10,0.74,10.444,M,-19.737,M,3.0,0569*50
$GNRMC,211819.000,A,4910.42664004,N,12304.40046392,W,0.029,066.26,281024,,,F,V*2F
$GNGLL,4910.42664004,N,12304.40046392,W,211819.000,A,D*52
$GNVTG,066.26,T,,M,0.029,N,0.053,K,D*2F
$GNGSA,A,3,03,04,07,09,16,26,,,,,,,1.30,0.74,1.06,1*0D
$GNGSA,A,3,,,,,,,,,,,,,1.30,0.74,1.06,2*04
$GNGSA,A,3,,,,,,,,,,,,,1.30,0.74,1.06,3*05
$GNGSA,A,3,21,22,36,45,,,,,,,,,1.30,0.74,1.06,4*05
$GNGSA,A,3,,,,,,,,,,,,,1.30,0.74,1.06,5*03
$GNGSA,A,3,,,,,,,,,,,,,1.30,0.74,1.06,6*00
$GPGSV,4,1,15,03,19,174,40,04,67,105,48,06,,,37,07,45,248,48,1*53
$GPGSV,4,2,15,09,77,302,51,11,,,41,16,46,075,46,20,,,40,1*6C
$GPGSV,4,3,15,26,22,047,42,27,,,36,30,,,39,31,,,29,1*56
$GPGSV,4,4,15,44,,,45,46,33,188,46,48,33,182,44,1*67
$GPGSV,3,1,10,03,19,174,31,04,67,105,49,06,,,34,07,45,248,40,6*5A
$GPGSV,3,2,10,09,77,302,45,11,,,39,26,22,047,36,27,,,34,6*60
$GPGSV,3,3,10,30,,,36,31,,,24,6*60
$GPGSV,2,1,08,03,19,174,42,04,67,105,53,06,,,41,09,77,302,53,8*53
$GPGSV,2,2,08,11,,,45,26,22,047,44,27,,,38,30,,,42,8*58
$GLGSV,1,1,00,1*78
$GLGSV,1,1,00,3*7A
$GAGSV,1,1,00,7*73
$GAGSV,1,1,00,2*76
$GAGSV,1,1,00,1*75
$GAGSV,1,1,00,5*71
$GBGSV,2,1,08,14,,,35,21,74,266,53,22,41,149,48,26,,,44,1*7B
$GBGSV,2,2,08,36,43,058,48,38,,,41,42,,,46,45,74,173,51,1*74
$GBGSV,1,1,01,14,,,35,B*07
$GBGSV,2,1,08,14,,,30,21,74,266,50,22,41,149,48,26,,,42,8*72
$GBGSV,2,2,08,36,43,058,48,38,,,39,42,,,44,45,74,173,49,8*79
$GBGSV,2,1,07,21,74,266,51,22,41,149,46,26,,,41,36,43,058,45,3*42
$GBGSV,2,2,07,38,,,38,42,,,42,45,74,173,50,3*41
$GBGSV,2,1,07,21,74,266,52,22,41,149,49,26,,,42,36,43,058,48,5*46
$GBGSV,2,2,07,38,,,40,42,,,47,45,74,173,52,5*4F
$GBGSV,2,1,07,21,74,266,51,22,41,149,51,26,,,43,36,43,058,51,6*46
$GBGSV,2,2,07,38,,,39,42,,,46,45,74,173,51,6*40
$GQGSV,1,1,00,1*65
$GQGSV,1,1,00,6*62
$GQGSV,1,1,00,8*6C
$GIGSV,1,1,00,1*7D
$PQTMTXT,1,01,01,01,0x0008ec1705f53dc1*4F
$GNGGA,211819.500,4910.42663740,N,12304.40046467,W,5,10,0.74,10.456,M,-19.737,M,1.5,0569*5C
$GNRMC,211819.500,A,4910.42663740,N,12304.40046467,W,0.017,066.26,281024,,,F,V*2A
$GNGLL,4910.42663740,N,12304.40046467,W,211819.500,A,D*5A
$GNVTG,066.26,T,,M,0.017,N,0.031,K,D*26
$PQTMTXT,1,01,01,01,0x0008ec1705f53dc1*4F
$GNGGA,211820.000,4910.42663619,N,12304.40046413,W,5,10,0.74,10.460,M,-19.737,M,2.0,0569*5E
$GNRMC,211820.000,A,4910.42663619,N,12304.40046413,W,0.010,066.26,281024,,,F,V*2C
$GNGLL,4910.42663619,N,12304.40046413,W,211820.000,A,D*5B
$GNVTG,066.26,T,,M,0.010,N,0.019,K,D*2B
$GNGSA,A,3,03,04,07,09,16,26,,,,,,,1.30,0.74,1.06,1*0D
$GNGSA,A,3,,,,,,,,,,,,,1.30,0.74,1.06,2*04
$GNGSA,A,3,,,,,,,,,,,,,1.30,0.74,1.06,3*05
$GNGSA,A,3,21,22,36,45,,,,,,,,,1.30,0.74,1.06,4*05
$GNGSA,A,3,,,,,,,,,,,,,1.30,0.74,1.06,5*03
$GNGSA,A,3,,,,,,,,,,,,,1.30,0.74,1.06,6*00
$GPGSV,4,1,15,03,19,174,40,04,67,105,48,06,,,37,07,45,248,48,1*53
$GPGSV,4,2,15,09,77,302,50,11,,,41,16,46,075,46,20,,,40,1*6D
$GPGSV,4,3,15,26,22,047,42,27,,,36,30,,,39,31,,,29,1*56
$GPGSV,4,4,15,44,,,44,46,33,188,45,48,33,182,45,1*64
$GPGSV,3,1,10,03,19,174,31,04,67,105,49,06,,,34,07,45,248,40,6*5A
$GPGSV,3,2,10,09,77,302,45,11,,,39,26,22,047,36,27,,,34,6*60
$GPGSV,3,3,10,30,,,37,31,,,24,6*61
$GPGSV,2,1,08,03,19,174,42,04,67,105,53,06,,,41,09,77,302,53,8*53
$GPGSV,2,2,08,11,,,45,26,22,047,44,27,,,38,30,,,42,8*58
$GLGSV,1,1,00,1*78
$GLGSV,1,1,00,3*7A
$GAGSV,1,1,00,7*73
$GAGSV,1,1,00,2*76
$GAGSV,1,1,00,1*75
$GAGSV,1,1,00,5*71
$GBGSV,2,1,08,14,,,34,21,74,266,53,22,41,149,48,26,,,44,1*7A
$GBGSV,2,2,08,36,43,058,47,38,,,41,42,,,46,45,74,173,51,1*7B
$GBGSV,1,1,01,14,,,35,B*07
$GBGSV,2,1,08,14,,,30,21,74,266,50,22,41,149,48,26,,,42,8*72
$GBGSV,2,2,08,36,43,058,48,38,,,39,42,,,44,45,74,173,50,8*71
$GBGSV,2,1,07,21,74,266,51,22,41,149,46,26,,,41,36,43,058,45,3*42
$GBGSV,2,2,07,38,,,38,42,,,42,45,74,173,50,3*41
$GBGSV,2,1,07,21,74,266,52,22,41,149,49,26,,,42,36,43,058,48,5*46
$GBGSV,2,2,07,38,,,40,42,,,47,45,74,173,52,5*4F
$GBGSV,2,1,07,21,74,266,51,22,41,149,51,26,,,43,36,43,058,51,6*46
$GBGSV,2,2,07,38,,,39,42,,,46,45,74,173,51,6*40
$GQGSV,1,1,00,1*65
$GQGSV,1,1,00,6*62
$GQGSV,1,1,00,8*6C
$GIGSV,1,1,00,1*7D
$PQTMTXT,1,01,01,01,0x0008ec1705f53dc1*4F
$GNGGA,211820.500,4910.42663359,N,12304.40046063,W,5,10,0.74,10.468,M,-19.737,M,2.5,0569*54
$GNRMC,211820.500,A,4910.42663359,N,12304.40046063,W,0.014,066.26,281024,,,F,V*2F
$GNGLL,4910.42663359,N,12304.40046063,W,211820.500,A,D*5C
$GNVTG,066.26,T,,M,0.014,N,0.027,K,D*22
$PQTMTXT,1,01,01,01,0x0008ec1705f53dc1*4F
$GNGGA,211821.000,4910.42663191,N,12304.40045892,W,5,10,0.74,10.469,M,-19.737,M,3.0,0569*56
$GNRMC,211821.000,A,4910.42663191,N,12304.40045892,W,0.013,066.26,281024,,,F,V*2F
$GNGLL,4910.42663191,N,12304.40045892,W,211821.000,A,D*5B
$GNVTG,066.26,T,,M,0.013,N,0.025,K,D*27
$GNGSA,A,3,03,04,07,09,16,26,,,,,,,1.30,0.74,1.06,1*0D
$GNGSA,A,3,,,,,,,,,,,,,1.30,0.74,1.06,2*04
$GNGSA,A,3,,,,,,,,,,,,,1.30,0.74,1.06,3*05
$GNGSA,A,3,21,22,36,45,,,,,,,,,1.30,0.74,1.06,4*05
$GNGSA,A,3,,,,,,,,,,,,,1.30,0.74,1.06,5*03
$GNGSA,A,3,,,,,,,,,,,,,1.30,0.74,1.06,6*00
$GPGSV,4,1,15,03,19,174,40,04,67,105,48,06,,,37,07,45,248,48,1*53
$GPGSV,4,2,15,09,77,302,51,11,,,41,16,46,075,46,20,,,40,1*6C
$GPGSV,4,3,15,26,22,047,42,27,,,36,30,,,40,31,,,29,1*58
$GPGSV,4,4,15,44,,,45,46,33,188,45,48,33,182,44,1*64
$GPGSV,3,1,10,03,19,174,31,04,67,105,49,06,,,34,07,45,248,40,6*5A
$GPGSV,3,2,10,09,77,302,45,11,,,39,26,22,047,36,27,,,34,6*60
$GPGSV,3,3,10,30,,,37,31,,,23,6*66
$GPGSV,2,1,08,03,19,174,42,04,67,105,53,06,,,41,09,77,302,53,8*53
$GPGSV,2,2,08,11,,,45,26,22,047,44,27,,,39,30,,,42,8*59
$GLGSV,1,1,00,1*78
$GLGSV,1,1,00,3*7A
$GAGSV,1,1,00,7*73
$GAGSV,1,1,00,2*76
$GAGSV,1,1,00,1*75
$GAGSV,1,1,00,5*71
$GBGSV,2,1,08,14,,,34,21,74,266,53,22,41,149,48,26,,,44,1*7A
$GBGSV,2,2,08,36,43,058,48,38,,,41,42,,,46,45,74,173,51,1*74
$GBGSV,1,1,01,14,,,35,B*07
$GBGSV,2,1,08,14,,,30,21,74,266,50,22,41,149,48,26,,,42,8*72
$GBGSV,2,2,08,36,43,058,48,38,,,39,42,,,44,45,74,173,50,8*71
$GBGSV,2,1,07,21,74,266,50,22,41,149,46,26,,,41,36,43,058,44,3*42
$GBGSV,2,2,07,38,,,38,42,,,42,45,74,173,50,3*41
$GBGSV,2,1,07,21,74,266,52,22,41,149,49,26,,,42,36,43,058,48,5*46
$GBGSV,2,2,07,38,,,40,42,,,47,45,74,173,52,5*4F
$GBGSV,2,1,07,21,74,266,51,22,41,149,52,26,,,43,36,43,058,51,6*45
$GBGSV,2,2,07,38,,,39,42,,,46,45,74,173,51,6*40
$GQGSV,1,1,00,1*65
$GQGSV,1,1,00,6*62
$GQGSV,1,1,00,8*6C
$GIGSV,1,1,00,1*7D
$PQTMTXT,1,01,01,01,0x0008ec1705f53dc1*4F
$GNGGA,211821.500,4910.42662887,N,12304.40046350,W,5,10,0.76,10.461,M,-19.737,M,2.5,0569*54
$GNRMC,211821.500,A,4910.42662887,N,12304.40046350,W,0.004,066.26,281024,,,F,V*25
$GNGLL,4910.42662887,N,12304.40046350,W,211821.500,A,D*57
$GNVTG,066.26,T,,M,0.004,N,0.008,K,D*2E
$PQTMTXT,1,01,01,01,0x0008ec1705f53dc1*4F
$GNGGA,211822.000,4910.42662790,N,12304.40046467,W,5,10,0.76,10.457,M,-19.737,M,3.0,0569*59
$GNRMC,211822.000,A,4910.42662790,N,12304.40046467,W,0.007,066.26,281024,,,F,V*2A
$GNGLL,4910.42662790,N,12304.40046467,W,211822.000,A,D*5B
$GNVTG,066.26,T,,M,0.007,N,0.012,K,D*26
$GNGSA,A,3,03,04,07,09,16,26,,,,,,,1.33,0.76,1.10,1*0B
$GNGSA,A,3,,,,,,,,,,,,,1.33,0.76,1.10,2*02
$GNGSA,A,3,,,,,,,,,,,,,1.33,0.76,1.10,3*03
$GNGSA,A,3,21,22,36,45,,,,,,,,,1.33,0.76,1.10,4*03
$GNGSA,A,3,,,,,,,,,,,,,1.33,0.76,1.10,5*05
$GNGSA,A,3,,,,,,,,,,,,,1.33,0.76,1.10,6*06
$GPGSV,4,1,15,03,19,174,40,04,67,105,47,06,,,37,07,45,248,47,1*53
$GPGSV,4,2,15,09,77,302,50,11,,,41,16,46,075,46,20,,,40,1*6D
$GPGSV,4,3,15,26,22,047,42,27,,,37,30,,,40,31,,,29,1*59
$GPGSV,4,4,15,44,,,45,46,33,188,45,48,33,182,43,1*63
$GPGSV,3,1,10,03,19,174,31,04,67,105,49,06,,,34,07,45,248,40,6*5A
$GPGSV,3,2,10,09,77,302,45,11,,,39,26,22,047,36,27,,,35,6*61
$GPGSV,3,3,10,30,,,37,31,,,24,6*61
$GPGSV,2,1,08,03,19,174,42,04,67,105,53,06,,,41,09,77,302,53,8*53
$GPGSV,2,2,08,11,,,45,26,22,047,44,27,,,38,30,,,42,8*58
$GLGSV,1,1,00,1*78
$GLGSV,1,1,00,3*7A
$GAGSV,1,1,00,7*73
$GAGSV,1,1,00,2*76
$GAGSV,1,1,00,1*75
$GAGSV,1,1,00,5*71
$GBGSV,2,1,08,14,,,35,21,74,266,53,22,41,149,48,26,,,44,1*7B
$GBGSV,2,2,08,36,43,058,47,38,,,41,42,,,46,45,74,173,51,1*7B
$GBGSV,1,1,01,14,,,35,B*07
$GBGSV,2,1,08,14,,,30,21,74,266,50,22,41,149,49,26,,,42,8*73
$GBGSV,2,2,08,36,43,058,48,38,,,39,42,,,45,45,74,173,50,8*70
$GBGSV,2,1,07,21,74,266,51,22,41,149,46,26,,,41,36,43,058,44,3*43
$GBGSV,2,2,07,38,,,39,42,,,42,45,74,173,50,3*40
$GBGSV,2,1,07,21,74,266,52,22,41,149,49,26,,,42,36,43,058,49,5*47
$GBGSV,2,2,07,38,,,40,42,,,47,45,74,173,52,5*4F
$GBGSV,2,1,07,21,74,266,51,22,41,149,51,26,,,43,36,43,058,51,6*46
$GBGSV,2,2,07,38,,,39,42,,,46,45,74,173,51,6*40
$GQGSV,1,1,00,1*65
$GQGSV,1,1,00,6*62
$GQGSV,1,1,00,8*6C
$GIGSV,1,1,00,1*7D
$PQTMTXT,1,01,01,01,0x0008ec1705f53dc1*4F
$GNGGA,211822.500,4910.42662401,N,12304.40046331,W,5,10,0.76,10.449,M,-19.737,M,3.5,0569*59
$GNRMC,211822.500,A,4910.42662401,N,12304.40046331,W,0.006,066.26,281024,,,F,V*21
$GNGLL,4910.42662401,N,12304.40046331,W,211822.500,A,D*51
$GNVTG,066.26,T,,M,0.006,N,0.010,K,D*25
$PQTMTXT,1,01,01,01,0x0008ec1705f53dc1*4F
$GNGGA,211823.000,4910.42662168,N,12304.40046217,W,5,10,0.76,10.447,M,-19.737,M,4.0,0569*5E
$GNRMC,211823.000,A,4910.42662168,N,12304.40046217,W,0.007,066.26,281024,,,F,V*2B
$GNGLL,4910.42662168,N,12304.40046217,W,211823.000,A,D*5A
$GNVTG,066.26,T,,M,0.007,N,0.014,K,D*20
$GNGSA,A,3,03,04,07,09,16,26,,,,,,,1.33,0.76,1.10,1*0B
$GNGSA,A,3,,,,,,,,,,,,,1.33,0.76,1.10,2*02
$GNGSA,A,3,,,,,,,,,,,,,1.33,0.76,1.10,3*03
$GNGSA,A,3,21,22,36,45,,,,,,,,,1.33,0.76,1.10,4*03
$GNGSA,A,3,,,,,,,,,,,,,1.33,0.76,1.10,5*05
$GNGSA,A,3,,,,,,,,,,,,,1.33,0.76,1.10,6*06
$GPGSV,4,1,15,03,19,174,40,04,67,105,47,06,,,37,07,45,248,47,1*53
$GPGSV,4,2,15,09,77,302,50,11,,,41,16,46,075,46,20,,,40,1*6D
$GPGSV,4,3,15,26,22,047,42,27,,,37,30,,,40,31,,,29,1*59
$GPGSV,4,4,15,44,,,45,46,33,188,46,48,33,182,44,1*67
$GPGSV,3,1,10,03,19,174,31,04,67,105,49,06,,,34,07,45,248,40,6*5A
$GPGSV,3,2,10,09,77,302,45,11,,,39,26,22,047,36,27,,,35,6*61
$GPGSV,3,3,10,30,,,37,31,,,24,6*61
$GPGSV,2,1,08,03,19,174,42,04,67,105,53,06,,,41,09,77,302,53,8*53
$GPGSV,2,2,08,11,,,45,26,22,047,44,27,,,38,30,,,42,8*58
$GLGSV,1,1,00,1*78
$GLGSV,1,1,00,3*7A
$GAGSV,1,1,00,7*73
$GAGSV,1,1,00,2*76
$GAGSV,1,1,00,1*75
$GAGSV,1,1,00,5*71
$GBGSV,2,1,08,14,,,35,21,74,266,52,22,41,149,48,26,,,44,1*7A
$GBGSV,2,2,08,36,43,058,47,38,,,41,42,,,46,45,74,173,51,1*7B
$GBGSV,1,1,01,14,,,35,B*07
$GBGSV,2,1,08,14,,,30,21,74,266,50,22,41,149,48,26,,,42,8*72
$GBGSV,2,2,08,36,43,058,48,38,,,38,42,,,44,45,74,173,49,8*78
$GBGSV,2,1,07,21,74,266,51,22,41,149,46,26,,,41,36,43,058,44,3*43
$GBGSV,2,2,07,38,,,38,42,,,42,45,74,173,50,3*41
$GBGSV,2,1,07,21,74,266,52,22,41,149,49,26,,,42,36,43,058,48,5*46
$GBGSV,2,2,07,38,,,40,42,,,47,45,74,173,52,5*4F
$GBGSV,2,1,07,21,74,266,51,22,41,149,51,26,,,43,36,43,058,51,6*46
$GBGSV,2,2,07,38,,,40,42,,,47,45,74,173,51,6*4F
$GQGSV,1,1,00,1*65
$GQGSV,1,1,00,6*62
$GQGSV,1,1,00,8*6C
$GIGSV,1,1,00,1*7D
$PQTMTXT,1,01,01,01,0x0008ec1705f53dc1*4F
$GNGGA,211823.500,4910.42661993,N,12304.40046692,W,5,10,0.76,10.433,M,-19.737,M,2.5,0569*5D
$GNRMC,211823.500,A,4910.42661993,N,12304.40046692,W,0.004,066.26,281024,,,F,V*2B
$GNGLL,4910.42661993,N,12304.40046692,W,211823.500,A,D*59
$GNVTG,066.26,T,,M,0.004,N,0.008,K,D*2E
$PQTMTXT,1,01,01,01,0x0008ec1705f53dc1*4F
$GNGGA,211824.000,4910.42661858,N,12304.40046959,W,5,10,0.76,10.425,M,-19.737,M,3.0,0569*52
$GNRMC,211824.000,A,4910.42661858,N,12304.40046959,W,0.004,066.26,281024,,,F,V*27
$GNGLL,4910.42661858,N,12304.40046959,W,211824.000,A,D*55
$GNVTG,066.26,T,,M,0.004,N,0.008,K,D*2E
$GNGSA,A,3,03,04,07,09,16,26,,,,,,,1.33,0.76,1.10,1*0B
$GNGSA,A,3,,,,,,,,,,,,,1.33,0.76,1.10,2*02
$GNGSA,A,3,,,,,,,,,,,,,1.33,0.76,1.10,3*03
$GNGSA,A,3,21,22,36,45,,,,,,,,,1.33,0.76,1.10,4*03
$GNGSA,A,3,,,,,,,,,,,,,1.33,0.76,1.10,5*05
$GNGSA,A,3,,,,,,,,,,,,,1.33,0.76,1.10,6*06
$GPGSV,4,1,15,03,19,174,40,04,67,105,47,06,,,37,07,45,248,48,1*5C
$GPGSV,4,2,15,09,77,302,51,11,,,41,16,46,075,47,20,,,40,1*6D
$GPGSV,4,3,15,26,22,047,42,27,,,38,30,,,40,31,,,29,1*56
$GPGSV,4,4,15,44,,,45,46,33,188,46,48,33,182,44,1*67
$GPGSV,3,1,10,03,19,174,32,04,67,105,49,06,,,34,07,45,248,40,6*59
$GPGSV,3,2,10,09,77,302,45,11,,,39,26,22,047,36,27,,,35,6*61
$GPGSV,3,3,10,30,,,37,31,,,24,6*61
$GPGSV,2,1,08,03,19,174,42,04,67,105,53,06,,,41,09,77,302,53,8*53
$GPGSV,2,2,08,11,,,45,26,22,047,44,27,,,38,30,,,42,8*58
$GLGSV,1,1,00,1*78
$GLGSV,1,1,00,3*7A
$GAGSV,1,1,00,7*73
$GAGSV,1,1,00,2*76
$GAGSV,1,1,00,1*75
$GAGSV,1,1,00,5*71
$GBGSV,2,1,08,14,,,35,21,74,266,52,22,41,149,48,26,,,44,1*7A
$GBGSV,2,2,08,36,43,058,47,38,,,41,42,,,46,45,74,173,51,1*7B
$GBGSV,1,1,01,14,,,35,B*07
$GBGSV,2,1,08,14,,,30,21,74,266,50,22,41,149,48,26,,,42,8*72
$GBGSV,2,2,08,36,43,058,48,38,,,39,42,,,44,45,74,173,50,8*71
$GBGSV,2,1,07,21,74,266,50,22,41,149,46,26,,,41,36,43,058,44,3*42
$GBGSV,2,2,07,38,,,39,42,,,41,45,74,173,50,3*43
$GBGSV,2,1,07,21,74,266,52,22,41,149,49,26,,,42,36,43,058,48,5*46
$GBGSV,2,2,07,38,,,40,42,,,47,45,74,173,52,5*4F
$GBGSV,2,1,07,21,74,266,51,22,41,149,51,26,,,43,36,43,058,51,6*46
$GBGSV,2,2,07,38,,,39,42,,,46,45,74,173,51,6*40
$GQGSV,1,1,00,1*65
$GQGSV,1,1,00,6*62
$GQGSV,1,1,00,8*6C
$GIGSV,1,1,00,1*7D
$PQTMTXT,1,01,01,01,0x0008ec1705f53dc1*4F
$GNGGA,211824.500,4910.42661733,N,12304.40047444,W,5,10,0.76,10.406,M,-19.737,M,2.5,0569*50
$GNRMC,211824.500,A,4910.42661733,N,12304.40047444,W,0.011,066.26,281024,,,F,V*24
$GNGLL,4910.42661733,N,12304.40047444,W,211824.500,A,D*52
$GNVTG,066.26,T,,M,0.011,N,0.020,K,D*20
$PQTMTXT,1,01,01,01,0x0008ec1705f53dc1*4F
$GNGGA,211825.000,4910.42661640,N,12304.40047616,W,5,10,0.76,10.396,M,-19.737,M,3.0,0569*5E
$GNRMC,211825.000,A,4910.42661640,N,12304.40047616,W,0.016,066.26,281024,,,F,V*27
$GNGLL,4910.42661640,N,12304.40047616,W,211825.000,A,D*56
$GNVTG,066.26,T,,M,0.016,N,0.030,K,D*26
$GNGSA,A,3,03,04,07,09,16,26,,,,,,,1.33,0.76,1.10,1*0B
$GNGSA,A,3,,,,,,,,,,,,,1.33,0.76,1.10,2*02
$GNGSA,A,3,,,,,,,,,,,,,1.33,0.76,1.10,3*03
$GNGSA,A,3,21,22,36,45,,,,,,,,,1.33,0.76,1.10,4*03
$GNGSA,A,3,,,,,,,,,,,,,1.33,0.76,1.10,5*05
$GNGSA,A,3,,,,,,,,,,,,,1.33,0.76,1.10,6*06
$GPGSV,4,1,15,03,19,174,40,04,67,105,48,06,,,37,07,45,248,48,1*53
$GPGSV,4,2,15,09,77,302,51,11,,,41,16,46,075,46,20,,,40,1*6C
$GPGSV,4,3,15,26,22,047,42,27,,,38,30,,,40,31,,,29,1*56
$GPGSV,4,4,15,44,,,44,46,33,188,45,48,33,182,44,1*65
$GPGSV,3,1,10,03,19,174,31,04,67,105,49,06,,,34,07,45,248,40,6*5A
$GPGSV,3,2,10,09,77,302,45,11,,,39,26,22,047,36,27,,,35,6*61
$GPGSV,3,3,10,30,,,37,31,,,23,6*66
$GPGSV,2,1,08,03,19,174,42,04,67,105,53,06,,,41,09,77,302,53,8*53
$GPGSV,2,2,08,11,,,45,26,22,047,44,27,,,38,30,,,42,8*58
$GLGSV,1,1,00,1*78
$GLGSV,1,1,00,3*7A
$GAGSV,1,1,00,7*73
$GAGSV,1,1,00,2*76
$GAGSV,1,1,00,1*75
$GAGSV,1,1,00,5*71
$GBGSV,2,1,08,14,,,35,21,74,266,52,22,41,149,48,26,,,44,1*7A
$GBGSV,2,2,08,36,43,058,48,38,,,41,42,,,46,45,74,173,51,1*74
$GBGSV,1,1,01,14,,,34,B*06
$GBGSV,2,1,08,14,,,30,21,74,266,50,22,41,149,48,26,,,42,8*72
$GBGSV,2,2,08,36,43,058,48,38,,,39,42,,,44,45,74,173,50,8*71
$GBGSV,2,1,07,21,74,266,50,22,41,149,46,26,,,42,36,43,058,45,3*40
$GBGSV,2,2,07,38,,,39,42,,,42,45,74,173,49,3*48
$GBGSV,2,1,07,21,74,266,52,22,41,149,49,26,,,42,36,43,058,48,5*46
$GBGSV,2,2,07,38,,,40,42,,,47,45,74,173,52,5*4F
$GBGSV,2,1,07,21,74,266,51,22,41,149,51,26,,,43,36,43,058,51,6*46
$GBGSV,2,2,07,38,,,39,42,,,46,45,74,173,51,6*40
$GQGSV,1,1,00,1*65
$GQGSV,1,1,00,6*62
$GQGSV,1,1,00,8*6C
$GIGSV,1,1,00,1*7D
$PQTMTXT,1,01,01,01,0x0008ec1705f53dc1*4F
$GNGGA,211825.500,4910.42661834,N,12304.40048535,W,5,10,0.81,10.364,M,-19.737,M,2.5,0569*5A
$GNRMC,211825.500,A,4910.42661834,N,12304.40048535,W,0.012,066.26,281024,,,F,V*26
$GNGLL,4910.42661834,N,12304.40048535,W,211825.500,A,D*53
$GNVTG,066.26,T,,M,0.012,N,0.022,K,D*21
$PQTMTXT,1,01,01,01,0x0008ec1705f53dc1*4F
$GNGGA,211826.000,4910.42661969,N,12304.40049300,W,5,10,0.81,10.338,M,-19.737,M,3.0,0569*59
$GNRMC,211826.000,A,4910.42661969,N,12304.40049300,W,0.020,066.26,281024,,,F,V*29
$GNGLL,4910.42661969,N,12304.40049300,W,211826.000,A,D*5D
$GNVTG,066.26,T,,M,0.020,N,0.038,K,D*2B
$GNGSA,A,3,03,04,07,09,16,26,,,,,,,1.39,0.81,1.13,1*0A
$GNGSA,A,3,,,,,,,,,,,,,1.39,0.81,1.13,2*03
$GNGSA,A,3,,,,,,,,,,,,,1.39,0.81,1.13,3*02
$GNGSA,A,3,21,22,36,45,,,,,,,,,1.39,0.81,1.13,4*02
$GNGSA,A,3,,,,,,,,,,,,,1.39,0.81,1.13,5*04
$GNGSA,A,3,,,,,,,,,,,,,1.39,0.81,1.13,6*07
$GPGSV,4,1,15,03,19,174,40,04,67,105,48,06,,,37,07,45,248,48,1*53
$GPGSV,4,2,15,09,77,302,51,11,,,41,16,46,075,46,20,,,40,1*6C
$GPGSV,4,3,15,26,22,047,42,27,,,37,30,,,39,31,,,29,1*57
$GPGSV,4,4,15,44,,,45,46,33,188,45,48,33,182,44,1*64
$GPGSV,3,1,10,03,19,174,32,04,67,105,49,06,,,35,07,45,248,41,6*59
$GPGSV,3,2,10,09,77,302,45,11,,,39,26,22,047,36,27,,,35,6*61
$GPGSV,3,3,10,30,,,37,31,,,24,6*61
$GPGSV,2,1,08,03,19,174,42,04,67,105,53,06,,,41,09,77,302,53,8*53
$GPGSV,2,2,08,11,,,45,26,22,047,44,27,,,38,30,,,42,8*58
$GLGSV,1,1,00,1*78
$GLGSV,1,1,00,3*7A
$GAGSV,1,1,00,7*73
$GAGSV,1,1,00,2*76
$GAGSV,1,1,00,1*75
$GAGSV,1,1,00,5*71
$GBGSV,2,1,08,14,,,35,21,74,266,52,22,41,149,48,26,,,44,1*7A
$GBGSV,2,2,08,36,43,058,48,38,,,41,42,,,46,45,74,173,51,1*74
$GBGSV,1,1,01,14,,,34,B*06
$GBGSV,2,1,08,14,,,30,21,74,266,50,22,41,149,48,26,,,42,8*72
$GBGSV,2,2,08,36,43,058,48,38,,,39,42,,,44,45,74,173,50,8*71
$GBGSV,2,1,07,21,74,266,50,22,41,149,46,26,,,41,36,43,058,44,3*42
$GBGSV,2,2,07,38,,,38,42,,,42,45,74,173,50,3*41
$GBGSV,2,1,07,21,74,266,52,22,41,149,49,26,,,42,36,43,058,48,5*46
$GBGSV,2,2,07,38,,,40,42,,,47,45,74,173,52,5*4F
$GBGSV,2,1,07,21,74,266,51,22,41,149,51,26,,,43,36,43,058,50,6*47
$GBGSV,2,2,07,38,,,39,42,,,46,45,74,173,51,6*40
$GQGSV,1,1,00,1*65
$GQGSV,1,1,00,6*62
$GQGSV,1,1,00,8*6C
$GIGSV,1,1,00,1*7D
$PQTMTXT,1,01,01,01,0x0008ec1705f53dc1*4F
$GNGGA,211826.500,4910.42662189,N,12304.40050931,W,5,10,0.76,10.289,M,-19.737,M,1.5,0569*5D
$GNRMC,211826.500,A,4910.42662189,N,12304.40050931,W,0.013,066.26,281024,,,F,V*29
$GNGLL,4910.42662189,N,12304.40050931,W,211826.500,A,D*5D
$GNVTG,066.26,T,,M,0.013,N,0.023,K,D*21
$PQTMTXT,1,01,01,01,0x0008ee3705f53dc1*4B
$GNGGA,211827.000,4910.42662394,N,12304.40051975,W,5,10,0.76,10.257,M,-19.737,M,2.0,0569*53
$GNRMC,211827.000,A,4910.42662394,N,12304.40051975,W,0.009,066.26,281024,,,F,V*29
$GNGLL,4910.42662394,N,12304.40051975,W,211827.000,A,D*56
$GNVTG,066.26,T,,M,0.009,N,0.017,K,D*2D
$GNGSA,A,3,03,04,07,09,16,26,,,,,,,1.33,0.76,1.10,1*0B
$GNGSA,A,3,,,,,,,,,,,,,1.33,0.76,1.10,2*02
$GNGSA,A,3,,,,,,,,,,,,,1.33,0.76,1.10,3*03
$GNGSA,A,3,21,22,36,45,,,,,,,,,1.33,0.76,1.10,4*03
$GNGSA,A,3,,,,,,,,,,,,,1.33,0.76,1.10,5*05
$GNGSA,A,3,,,,,,,,,,,,,1.33,0.76,1.10,6*06
$GPGSV,4,1,15,03,19,174,40,04,67,105,48,06,,,37,07,45,248,48,1*53
$GPGSV,4,2,15,09,77,302,51,11,,,41,16,46,075,46,20,,,40,1*6C
$GPGSV,4,3,15,26,22,047,42,27,,,38,30,,,39,31,,,29,1*58
$GPGSV,4,4,15,44,,,46,46,33,188,45,48,33,182,43,1*60
$GPGSV,3,1,10,03,19,174,32,04,67,105,49,06,,,34,07,45,248,40,6*59
$GPGSV,3,2,10,09,77,302,45,11,,,39,26,22,047,36,27,,,35,6*61
$GPGSV,3,3,10,30,,,37,31,,,24,6*61
$GPGSV,2,1,08,03,19,174,42,04,67,105,53,06,,,41,09,77,302,53,8*53
$GPGSV,2,2,08,11,,,45,26,22,047,44,27,,,38,30,,,42,8*58
$GLGSV,1,1,00,1*78
$GLGSV,1,1,00,3*7A
$GAGSV,1,1,00,7*73
$GAGSV,1,1,00,2*76
$GAGSV,1,1,00,1*75
$GAGSV,1,1,00,5*71
$GBGSV,2,1,08,14,,,35,21,74,266,52,22,41,149,49,26,,,44,1*7B
$GBGSV,2,2,08,36,43,058,48,38,,,41,42,,,46,45,74,173,51,1*74
$GBGSV,1,1,01,14,,,34,B*06
$GBGSV,2,1,08,14,,,30,21,74,266,50,22,41,149,48,26,,,42,8*72
$GBGSV,2,2,08,36,43,058,48,38,,,39,42,,,44,45,74,173,50,8*71
$GBGSV,2,1,07,21,74,266,51,22,41,149,46,26,,,41,36,43,058,44,3*43
$GBGSV,2,2,07,38,,,38,42,,,42,45,74,173,50,3*41
$GBGSV,2,1,07,21,74,266,52,22,41,149,49,26,,,42,36,43,058,48,5*46
$GBGSV,2,2,07,38,,,40,42,,,48,45,74,173,52,5*40
$GBGSV,2,1,07,21,74,266,51,22,41,149,51,26,,,43,36,43,058,51,6*46
$GBGSV,2,2,07,38,,,39,42,,,46,45,74,173,51,6*40
$GQGSV,1,1,01,04,,,35,1*66
$GQGSV,1,1,01,04,,,32,6*66
$GQGSV,1,1,00,8*6C
$GIGSV,1,1,00,1*7D
$PQTMTXT,1,01,01,01,0x0008ee3705f53dc1*4B
$GNGGA,211827.500,4910.42662767,N,12304.40053763,W,5,10,0.78,10.195,M,-19.737,M,2.5,0569*53
$GNRMC,211827.500,A,4910.42662767,N,12304.40053763,W,0.005,066.26,281024,,,F,V*23
$GNGLL,4910.42662767,N,12304.40053763,W,211827.500,A,D*50
$GNVTG,066.26,T,,M,0.005,N,0.009,K,D*2E
$PQTMTXT,1,01,01,01,0x0008ee3705f53dc1*4B
$GNGGA,211828.000,4910.42662920,N,12304.40054599,W,5,10,0.78,10.166,M,-19.737,M,3.0,0569*5C
$GNRMC,211828.000,A,4910.42662920,N,12304.40054599,W,0.009,066.26,281024,,,F,V*28
$GNGLL,4910.42662920,N,12304.40054599,W,211828.000,A,D*57
$GNVTG,066.26,T,,M,0.009,N,0.017,K,D*2D
$GNGSA,A,3,03,04,07,09,16,26,,,,,,,1.40,0.78,1.16,1*07
$GNGSA,A,3,,,,,,,,,,,,,1.40,0.78,1.16,2*0E
$GNGSA,A,3,,,,,,,,,,,,,1.40,0.78,1.16,3*0F
$GNGSA,A,3,21,22,36,45,,,,,,,,,1.40,0.78,1.16,4*0F
$GNGSA,A,3,,,,,,,,,,,,,1.40,0.78,1.16,5*09
$GNGSA,A,3,,,,,,,,,,,,,1.40,0.78,1.16,6*0A
$GPGSV,4,1,15,03,19,174,40,04,67,105,48,06,,,37,07,45,248,48,1*53
$GPGSV,4,2,15,09,77,302,51,11,,,41,16,46,075,46,20,,,39,1*62
$GPGSV,4,3,15,26,22,047,42,27,,,38,30,,,39,31,,,28,1*59
$GPGSV,4,4,15,44,,,46,46,33,188,46,48,33,182,44,1*64
$GPGSV,3,1,10,03,19,174,32,04,67,105,49,06,,,34,07,45,248,41,6*58
$GPGSV,3,2,10,09,77,302,45,11,,,39,26,22,047,36,27,,,35,6*61
$GPGSV,3,3,10,30,,,37,31,,,24,6*61
$GPGSV,2,1,08,03,19,174,42,04,67,105,53,06,,,41,09,77,302,53,8*53
$GPGSV,2,2,08,11,,,45,26,22,047,44,27,,,38,30,,,42,8*58
$GLGSV,1,1,00,1*78
$GLGSV,1,1,00,3*7A
$GAGSV,1,1,00,7*73
$GAGSV,1,1,00,2*76
$GAGSV,1,1,00,1*75
$GAGSV,1,1,00,5*71
$GBGSV,2,1,08,14,,,35,21,74,266,52,22,41,149,48,26,,,44,1*7A
$GBGSV,2,2,08,36,43,058,48,38,,,41,42,,,46,45,74,173,51,1*74
$GBGSV,1,1,01,14,,,35,B*07
$GBGSV,2,1,08,14,,,30,21,74,266,50,22,41,149,48,26,,,42,8*72
$GBGSV,2,2,08,36,43,058,48,38,,,39,42,,,44,45,74,173,50,8*71
$GBGSV,2,1,07,21,74,266,50,22,41,149,46,26,,,41,36,43,058,45,3*43
$GBGSV,2,2,07,38,,,38,42,,,42,45,74,173,49,3*49
$GBGSV,2,1,07,21,74,266,52,22,41,149,49,26,,,42,36,43,058,48,5*46
$GBGSV,2,2,07,38,,,40,42,,,47,45,74,173,52,5*4F
$GBGSV,2,1,07,21,74,266,51,22,41,149,51,26,,,43,36,43,058,51,6*46
$GBGSV,2,2,07,38,,,39,42,,,46,45,74,173,51,6*40
$GQGSV,1,1,01,04,,,35,1*66
$GQGSV,1,1,01,04,,,32,6*66
$GQGSV,1,1,00,8*6C
$GIGSV,1,1,00,1*7D
$PQTMTXT,1,01,01,01,0x0008ee3705f53dc1*4B
$GNGGA,211828.500,4910.42663193,N,12304.40055696,W,5,11,0.76,10.134,M,-19.737,M,1.5,0569*5A
$GNRMC,211828.500,A,4910.42663193,N,12304.40055696,W,0.007,066.26,281024,,,F,V*2F
$GNGLL,4910.42663193,N,12304.40055696,W,211828.500,A,D*5E
$GNVTG,066.26,T,,M,0.007,N,0.012,K,D*26
$PQTMTXT,1,01,01,01,0x0008ee3705f53dc1*4B
$GNGGA,211829.000,4910.42663298,N,12304.40056133,W,5,11,0.76,10.119,M,-19.737,M,2.0,0569*54
$GNRMC,211829.000,A,4910.42663298,N,12304.40056133,W,0.010,066.26,281024,,,F,V*2E
$GNGLL,4910.42663298,N,12304.40056133,W,211829.000,A,D*59
$GNVTG,066.26,T,,M,0.010,N,0.019,K,D*2B
$GNGSA,A,3,03,04,07,09,16,26,30,,,,,,1.33,0.76,1.10,1*08
$GNGSA,A,3,,,,,,,,,,,,,1.33,0.76,1.10,2*02
$GNGSA,A,3,,,,,,,,,,,,,1.33,0.76,1.10,3*03
$GNGSA,A,3,21,22,36,45,,,,,,,,,1.33,0.76,1.10,4*03
$GNGSA,A,3,,,,,,,,,,,,,1.33,0.76,1.10,5*05
$GNGSA,A,3,,,,,,,,,,,,,1.33,0.76,1.10,6*06
$GPGSV,4,1,15,03,19,174,40,04,67,105,48,06,,,37,07,45,248,48,1*53
$GPGSV,4,2,15,09,77,302,51,11,,,41,16,46,075,46,20,,,40,1*6C
$GPGSV,4,3,15,26,22,047,42,27,,,38,30,13,247,40,31,,,28,1*64
$GPGSV,4,4,15,44,,,45,46,33,188,45,48,33,182,43,1*63
$GPGSV,3,1,10,03,19,174,32,04,67,105,49,06,,,34,07,45,248,41,6*58
$GPGSV,3,2,10,09,77,302,45,11,,,39,26,22,047,36,27,,,35,6*61
$GPGSV,3,3,10,30,13,247,37,31,,,23,6*55
$GPGSV,2,1,08,03,19,174,42,04,67,105,53,06,,,41,09,77,302,53,8*53
$GPGSV,2,2,08,11,,,45,26,22,047,44,27,,,38,30,13,247,42,8*6B
$GLGSV,1,1,00,1*78
$GLGSV,1,1,00,3*7A
$GAGSV,1,1,00,7*73
$GAGSV,1,1,00,2*76
$GAGSV,1,1,00,1*75
$GAGSV,1,1,00,5*71
$GBGSV,2,1,08,14,,,34,21,74,266,52,22,41,149,49,26,,,44,1*7A
$GBGSV,2,2,08,36,43,058,47,38,,,41,42,,,46,45,74,173,51,1*7B
$GBGSV,1,1,01,14,,,35,B*07
$GBGSV,2,1,08,14,,,30,21,74,266,50,22,41,149,48,26,,,42,8*72
$GBGSV,2,2,08,36,43,058,48,38,,,39,42,,,44,45,74,173,50,8*71
$GBGSV,2,1,07,21,74,266,51,22,41,149,46,26,,,41,36,43,058,44,3*43
$GBGSV,2,2,07,38,,,38,42,,,41,45,74,173,50,3*42
$GBGSV,2,1,07,21,74,266,52,22,41,149,49,26,,,42,36,43,058,48,5*46
$GBGSV,2,2,07,38,,,40,42,,,47,45,74,173,51,5*4C
$GBGSV,2,1,07,21,74,266,51,22,41,149,51,26,,,43,36,43,058,51,6*46
$GBGSV,2,2,07,38,,,39,42,,,46,45,74,173,51,6*40
$GQGSV,1,1,01,04,,,35,1*66
$GQGSV,1,1,01,04,,,33,6*67
$GQGSV,1,1,00,8*6C
$GIGSV,1,1,00,1*7D
$PQTMTXT,1,01,01,01,0x0008ee3705f53dc1*4B
$GNGGA,211829.500,4910.42663633,N,12304.40057713,W,5,15,0.61,10.065,M,-19.737,M,2.5,0569*5C
$GNRMC,211829.500,A,4910.42663633,N,12304.40057713,W,0.006,066.26,281024,,,F,V*2C
$GNGLL,4910.42663633,N,12304.40057713,W,211829.500,A,D*5C
$GNVTG,066.26,T,,M,0.006,N,0.012,K,D*27
$PQTMTXT,1,01,01,01,0x0008ee3705f53dc1*4B
$GNGGA,211830.000,4910.42663800,N,12304.40058542,W,5,15,0.61,10.036,M,-19.737,M,3.0,0569*54
$GNRMC,211830.000,A,4910.42663800,N,12304.40058542,W,0.003,066.26,281024,,,F,V*23
$GNGLL,4910.42663800,N,12304.40058542,W,211830.000,A,D*56
$GNVTG,066.26,T,,M,0.003,N,0.006,K,D*27
$GNGSA,A,3,03,04,06,07,09,11,16,20,26,30,,,1.01,0.61,0.81,1*02
$GNGSA,A,3,,,,,,,,,,,,,1.01,0.61,0.81,2*0C
$GNGSA,A,3,,,,,,,,,,,,,1.01,0.61,0.81,3*0D
$GNGSA,A,3,21,22,36,38,45,,,,,,,,1.01,0.61,0.81,4*06
$GNGSA,A,3,,,,,,,,,,,,,1.01,0.61,0.81,5*0B
$GNGSA,A,3,,,,,,,,,,,,,1.01,0.61,0.81,6*08
$GPGSV,4,1,15,03,19,174,40,04,67,105,48,06,10,263,37,07,45,248,48,1*65
$GPGSV,4,2,15,09,77,302,51,11,13,304,41,16,46,075,46,20,13,323,40,1*69
$GPGSV,4,3,15,26,22,047,42,27,,,38,30,13,247,40,31,,,27,1*6B
$GPGSV,4,4,15,44,,,45,46,33,188,45,48,33,182,44,1*64
$GPGSV,3,1,10,03,19,174,32,04,67,105,49,06,10,263,34,07,45,248,41,6*6E
$GPGSV,3,2,10,09,77,302,45,11,13,304,39,26,22,047,36,27,,,35,6*54
$GPGSV,3,3,10,30,13,247,37,31,,,24,6*52
$GPGSV,2,1,08,03,19,174,42,04,67,105,53,06,10,263,41,09,77,302,53,8*65
$GPGSV,2,2,08,11,13,304,45,26,22,047,44,27,,,38,30,13,247,42,8*5E
$GLGSV,1,1,00,1*78
$GLGSV,1,1,00,3*7A
$GAGSV,1,1,00,7*73
$GAGSV,1,1,00,2*76
$GAGSV,1,1,00,1*75
$GAGSV,1,1,00,5*71
$GBGSV,2,1,08,14,,,35,21,74,266,53,22,41,149,49,26,,,44,1*7A
$GBGSV,2,2,08,36,43,058,47,38,11,332,42,42,,,46,45,74,173,52,1*49
$GBGSV,1,1,01,14,,,35,B*07
$GBGSV,2,1,08,14,,,30,21,74,266,50,22,41,149,48,26,,,42,8*72
$GBGSV,2,2,08,36,43,058,48,38,11,332,39,42,,,44,45,74,173,49,8*4B
$GBGSV,2,1,07,21,74,266,51,22,41,149,46,26,,,41,36,43,058,45,3*42
$GBGSV,2,2,07,38,11,332,39,42,,,41,45,74,173,50,3*71
$GBGSV,2,1,07,21,74,266,52,22,41,149,49,26,,,42,36,43,058,48,5*46
$GBGSV,2,2,07,38,11,332,40,42,,,47,45,74,173,52,5*7D
$GBGSV,2,1,07,21,74,266,51,22,41,149,51,26,,,43,36,43,058,51,6*46
$GBGSV,2,2,07,38,11,332,39,42,,,46,45,74,173,51,6*72
$GQGSV,1,1,01,04,,,35,1*66
$GQGSV,1,1,01,04,,,33,6*67
$GQGSV,1,1,00,8*6C
$GIGSV,1,1,00,1*7D
$PQTMTXT,1,01,01,01,0x0008ee3705f53dc1*4B
$GNGGA,211830.500,4910.42664056,N,12304.40056745,W,5,17,0.45,10.076,M,-19.737,M,2.5,0569*52
$GNRMC,211830.500,A,4910.42664056,N,12304.40056745,W,0.001,066.26,281024,,,F,V*23
$GNGLL,4910.42664056,N,12304.40056745,W,211830.500,A,D*54
$GNVTG,066.26,T,,M,0.001,N,0.003,K,D*20
$PQTMTXT,1,01,01,01,0x0008ee3705f53dc1*4B
$GNGGA,211831.000,4910.42664159,N,12304.40055820,W,5,17,0.45,10.096,M,-19.737,M,3.0,0569*5D
$GNRMC,211831.000,A,4910.42664159,N,12304.40055820,W,0.003,066.26,281024,,,F,V*24
$GNGLL,4910.42664159,N,12304.40055820,W,211831.000,A,D*51
$GNVTG,066.26,T,,M,0.003,N,0.005,K,D*24
$GNGSA,A,3,03,04,06,07,09,11,16,20,26,30,,,0.72,0.45,0.57,1*0A
$GNGSA,A,3,,,,,,,,,,,,,0.72,0.45,0.57,2*04
$GNGSA,A,3,,,,,,,,,,,,,0.72,0.45,0.57,3*05
$GNGSA,A,3,21,22,26,36,38,42,45,,,,,,0.72,0.45,0.57,4*0C
$GNGSA,A,3,,,,,,,,,,,,,0.72,0.45,0.57,5*03
$GNGSA,A,3,,,,,,,,,,,,,0.72,0.45,0.57,6*00
